%time,field.header.seq,field.header.stamp,field.header.frame_id,field.name0,field.name1,field.name2,field.position0,field.position1,field.position2,field.velocity0,field.velocity1,field.velocity2,field.effort0,field.effort1,field.effort2
428000000,204,428000000,,base_to_link1,link1_to_link2,link2_to_link3,-1.0932113025017056,-0.07261271747578846,-0.04800608521390526,0.1760548382793363,0.4865433222027053,0.14938537290059511,0.31602930677488317,0.4583216697898518,0.09112560148841098
428000000,205,429000000,,base_to_link1,link1_to_link2,link2_to_link3,-1.093037577411133,-0.07212985480653256,-0.047857774592272584,0.17372509124810004,0.48286293941529496,0.14831060551618752,0.31660852901625347,0.45711050248087304,0.09069679708257006
430000000,206,430000000,,base_to_link1,link1_to_link2,link2_to_link3,-1.0928661718581818,-0.07165069764277199,-0.04771054812242159,0.1714055536093023,0.4791574357381913,0.14722645371937038,0.3172010251262769,0.45596226040937715,0.0902884582337915
431000000,207,431000000,,base_to_link1,link1_to_link2,link2_to_link3,-1.0926970754518948,-0.07117527011580016,-0.04756441485888896,0.1690964069306287,0.4754278007534345,0.14613324739131983,0.31780650721829673,0.45487619426710424,0.08990034531696445
432000000,208,432000000,,base_to_link1,link1_to_link2,link2_to_link3,-1.092530277623923,-0.07070359537825865,-0.0474193835299106,0.16679782860074793,0.47167501310854865,0.1450313128282929,0.31842468981952976,0.4538515557861267,0.08953221899999697
433000000,209,433000000,,base_to_link1,link1_to_link2,link2_to_link3,-1.0923657676326677,-0.07023569561507514,-0.047275462541018776,0.16450999187060678,0.4679000405197683,0.14392097273746374,0.3190552898550525,0.45288759784103405,0.089183840264484
434000000,210,434000000,,base_to_link1,link1_to_link2,link2_to_link3,-1.0922035345673713,-0.06977159205438621,-0.04713265997862237,0.1622330658966874,0.46410383977439723,0.1428025462423757,0.3196980266590188,0.45198357456719407,0.08885497046210666
435000000,211,435000000,,base_to_link1,link1_to_link2,link2_to_link3,-1.0920435673521762,-0.0693113049784646,-0.046990983613586224,0.15996721578256784,0.46028735673659626,0.14167634888309327,0.3203526219649433,0.45113874145488175,0.08854537133355933
436000000,212,436000000,,base_to_link1,link1_to_link2,link2_to_link3,-1.091885854750129,-0.0688548537346323,-0.04685044090482382,0.15771260262154324,0.45645152635598796,0.14054269261612817,0.3210187999143166,0.4503523554629929,0.08825480504345506
437000000,213,437000000,,base_to_link1,link1_to_link2,link2_to_link3,-1.0917303853671534,-0.06840225674616907,-0.04671103900286333,0.15546938353727072,0.45259727267414823,0.1394018858229472,0.3216962870415774,0.44962367511396373,0.0879830342295751
438000000,214,438000000,,base_to_link1,link1_to_link2,link2_to_link3,-1.0915771476559772,-0.06795353152320516,-0.04657278475343141,0.15323771172560607,0.4487255088384991,0.13825423330753533,0.32238481228365146,0.448951960598416,0.08772982201188384
439000000,215,439000000,,base_to_link1,link1_to_link2,link2_to_link3,-1.0914261299200199,-0.06750869467360676,-0.04643568470101833,0.15101773649564157,0.44483713711243367,0.1371000363052799,0.32308410697124756,0.44833647386809616,0.08749493204613046
440000000,216,440000000,,base_to_link1,link1_to_link2,link2_to_link3,-1.0912773203172357,-0.06706776191384378,-0.04629974509244583,0.14880960331012338,0.44093304889131585,0.13593959248455723,0.32379390483043835,0.44777647873762483,0.0872781285408486
441000000,217,441000000,,base_to_link1,link1_to_link2,link2_to_link3,-1.0911307068639262,-0.06663074807984248,-0.046164971880427785,0.14661345382567376,0.43701412471781514,0.13477319595306742,0.32451394197579475,0.44727124097541093,0.08707917629569906
442000000,218,442000000,,base_to_link1,link1_to_link2,link2_to_link3,-1.090986277438497,-0.0661976671378195,-0.046031370727126486,0.14442942593362113,0.43308123429924117,0.13360113726398626,0.32524395691742036,0.4468200283970791,0.08689784072997142
443000000,219,443000000,,base_to_link1,link1_to_link2,link2_to_link3,-1.0908440197851927,-0.0657685321951007,-0.045898947007697366,0.14225765379897995,0.4291352365274503,0.13242370342218313,0.32598369054345433,0.44642211095515805,0.08673388791370584
444000000,220,444000000,,base_to_link1,link1_to_link2,link2_to_link3,-1.0907039215177772,-0.06534335551091264,-0.0457677058138346,0.14009826790073485,0.4251769794993362,0.13124117788996786,0.3267328861352148,0.4460767608321703,0.08658708459159392
445000000,221,445000000,,base_to_link1,link1_to_link2,link2_to_link3,-1.0905659701231825,-0.06492214850715516,-0.04563765195730429,0.13795139507053472,0.42120730053922484,0.13005384059573,0.3274912893498261,0.4457832525210126,0.08645719821932296
446000000,222,446000000,,base_to_link1,link1_to_link2,link2_to_link3,-1.0904301529651175,-0.06450492177915201,-0.045508789973468744,0.13581715853207343,0.41722702622269864,0.12886196794183286,0.3282586482247307,0.44554086291403117,0.08634399698647321
447000000,223,447000000,,base_to_link1,link1_to_link2,link2_to_link3,-1.0902964572876357,-0.06409168510637553,-0.04538112412480899,0.13369567793960932,0.4132369724025772,0.12766583281134963,0.32903471317380806,0.44534887138832246,0.08624724984287901
448000000,224,448000000,,base_to_link1,link1_to_link2,link2_to_link3,-1.0901648702186684,-0.06368244746313678,-0.04525465840442955,0.13158706941612294,0.40923794423498566,0.12646570457872175,0.3298192369821962,0.44520655988722346,0.08616672653207758
449000000,225,449000000,,base_to_link1,link1_to_link2,link2_to_link3,-1.0900353787735169,-0.0632772170292597,-0.04512939653956316,0.12949144559152645,0.405230736208302,0.12526184911792648,0.3306119748069847,0.4451132129925739,0.08610219760859295
450000000,226,450000000,,base_to_link1,link1_to_link2,link2_to_link3,-1.0899079698583094,-0.06287600120071613,-0.045005341995056014,0.12740891564123838,0.4012161321724383,0.12405452881346785,0.33141268417128167,0.4450681180154703,0.08605343447298353
451000000,227,451000000,,base_to_link1,link1_to_link2,link2_to_link3,-1.0897826302734117,-0.062478806600234194,-0.044882497976852065,0.1253395853229607,0.3971949053700505,0.1228440025689842,0.3322211249632545,0.4450705650635367,0.08602020938715427
452000000,228,452000000,,base_to_link1,link1_to_link2,link2_to_link3,-1.0896593467168154,-0.06208563908787301,-0.04476086743546137,0.1232835570134946,0.39316781846959964,0.12163052581888856,0.3330370594240506,0.44511984712036323,0.08600229550831173
453000000,229,453000000,,base_to_link1,link1_to_link2,link2_to_link3,-1.0895381057874793,-0.06169650377156177,-0.04464045306941422,0.12124092974706285,0.3891356235982417,0.120414350539851,0.3338602521594769,0.4452152601175019,0.08599946690766025
454000000,230,454000000,,base_to_link1,link1_to_link2,link2_to_link3,-1.0894188939886318,-0.06131140501760868,-0.04452125732871526,0.11921179925158558,0.38509906237765945,0.11919572526052136,0.3346904701263398,0.4453561030043307,0.08601149859073232
455000000,231,455000000,,base_to_link1,link1_to_link2,link2_to_link3,-1.0893016977310452,-0.06093034646116724,-0.044403282418274514,0.11719625798419189,0.3810588659598424,0.11797489507592529,0.33552748262638765,0.44554167782294485,0.08603816653192986
456000000,232,456000000,,base_to_link1,link1_to_link2,link2_to_link3,-1.0891865033362667,-0.0605533310166706,-0.04428653030132512,0.11519439516912892,0.37701575506472323,0.11675210165898503,0.3363710613115245,0.4457712897701871,0.08607924768574193
457000000,233,457000000,,base_to_link1,link1_to_link2,link2_to_link3,-1.0890732970398194,-0.06018036088822143,-0.04417100270284369,0.11320629683200001,0.37297044002012775,0.11552758327050677,0.3372209801717041,0.44604424727001657,0.08613452000759914
458000000,234,458000000,,base_to_link1,link1_to_link2,link2_to_link3,-1.0889620649943623,-0.05981143757995078,-0.044056701112936025,0.11123204583696264,0.36892362079952373,0.11430157477789721,0.3380770155385271,0.44635986203299893,0.08620376249074191
459000000,235,459000000,,base_to_link1,link1_to_link2,link2_to_link3,-1.0888527932728147,-0.059446561906321804,-0.04394362679022912,0.10927172192118374,0.3648759870657697,0.11307430766263815,0.33893894607420094,0.4467174491288084,0.08628675516543893
460000000,236,460000000,,base_to_link1,link1_to_link2,link2_to_link3,-1.088745467871452,-0.05908573400240691,-0.04383178076523375,0.1073254017303762,0.3608282182111319,0.11184601003938921,0.3398065527681471,0.44711632703419824,0.08638327913912391
461000000,237,461000000,,base_to_link1,link1_to_link2,link2_to_link3,-1.088640074712961,-0.05872895333410888,-0.043721163843702726,0.10539315885397513,0.35678098340225883,0.110616906666405,0.34067961893954113,0.44755581770912656,0.08649311660071213
462000000,238,462000000,,base_to_link1,link1_to_link2,link2_to_link3,-1.0885365996494594,-0.05837621870834653,-0.0436117766099704,0.10347506385954333,0.3527349416238444,0.10938721896224246,0.3415579302261129,0.44803524664301264,0.08661605084974155
463000000,239,463000000,,base_to_link1,link1_to_link2,link2_to_link3,-1.0884350284654847,-0.05802752828318791,-0.04350361943027714,0.10157118432736222,0.34869074172472764,0.10815716501964412,0.3424412745806027,0.4485539429210661,0.08675186631111664
464000000,240,464000000,,base_to_link1,link1_to_link2,link2_to_link3,-1.0883353468809487,-0.05768287957793916,-0.04339669245608313,0.09968158488443486,0.3446490224639597,0.10692695962098908,0.34332944226777684,0.4491112392732166,0.08690034855325379
465000000,241,465000000,,base_to_link1,link1_to_link2,link2_to_link3,-1.0882375405540525,-0.057342269483190655,-0.043290995627357276,0.09780632723970212,0.34061041255795205,0.10569681425589211,0.34422222586111495,0.4497064721305932,0.08706128431056115
466000000,242,466000000,,base_to_link1,link1_to_link2,link2_to_link3,-1.0881415950841768,-0.05700569427080815,-0.04318652867585904,0.09594547021550007,0.33657553073062263,0.10446693713342214,0.3451194202319918,0.4503389816833536,0.08723446149145886
467000000,243,467000000,,base_to_link1,link1_to_link2,link2_to_link3,-1.0880474960147275,-0.05667314960387593,-0.04308329112840159,0.09409906978363246,0.3325449857612251,0.10323753320081419,0.3460208225537098,0.45100811192552825,0.08741966920409183
468000000,244,468000000,,base_to_link1,link1_to_link2,link2_to_link3,-1.0879552288359626,-0.056344630546590224,-0.04298128231009635,0.09226717909695328,0.3285193765357639,0.10200880415988511,0.3469262322855471,0.4517132107064903,0.08761669777030967
469000000,245,469000000,,base_to_link1,link1_to_link2,link2_to_link3,-1.0878647789877656,-0.05602013157410646,-0.04288050134758059,0.09044984852412494,0.32449929209717215,0.10078094848426639,0.3478354511823767,0.4524536297801518,0.08782533873946008
470000000,246,470000000,,base_to_link1,link1_to_link2,link2_to_link3,-1.0877761318624088,-0.05569964658232074,-0.04278094717223002,0.08864712568016443,0.32048531169982586,0.09955416143363816,0.3487482832682165,0.45322872485725085,0.08804538490378988
471000000,247,471000000,,base_to_link1,link1_to_link2,link2_to_link3,-1.0876892728072676,-0.055383168897614965,-0.042682618523357974,0.0868590554616288,0.3164780048598862,0.09832863507443423,0.3496645348549876,0.45403785563744137,0.0882766303154714
472000000,248,472000000,,base_to_link1,link1_to_link2,link2_to_link3,-1.0876041871275062,-0.05507069128653619,-0.042585513951384435,0.08508568007800887,0.31247793141030555,0.09710455829743775,0.350584014519022,0.45488038587032875,0.08851887030527195
473000000,249,473000000,,base_to_link1,link1_to_link2,link2_to_link3,-1.0875208600887358,-0.05476220596542536,-0.042489631820997076,0.08332703908382326,0.3084856415562616,0.09588211683285869,0.35150653310128455,0.4557556833865384,0.08877190148404601
474000000,250,474000000,,base_to_link1,link1_to_link2,link2_to_link3,-1.0874392769196346,-0.05445770460998833,-0.04239497031429895,0.08158316941072481,0.3045016759302476,0.09466149326955992,0.3524319037046375,0.45666312014337684,0.08903552176635188
475000000,251,475000000,,base_to_link1,link1_to_link2,link2_to_link3,-1.087359422814541,-0.054157178364818925,-0.042301527433919794,0.07985410540056108,0.3005265656469499,0.09344286707697003,0.3533599416827382,0.45760207226281047,0.089309530388606
476000000,252,476000000,,base_to_link1,link1_to_link2,link2_to_link3,-1.0872812829360097,-0.05386061785285001,-0.04220930100612996,0.07813987883557286,0.2965608323624768,0.0922264146178684,0.35429046463932856,0.45857192007873415,0.08959372790378062
477000000,253,477000000,,base_to_link1,link1_to_link2,link2_to_link3,-1.0872048424173393,-0.0535680131847629,-0.042118288683916205,0.0764405189711061,0.29260498832978427,0.09101230917321623,0.3552232924164933,0.45957204815954,0.08988791621520775
478000000,254,478000000,,base_to_link1,link1_to_link2,link2_to_link3,-1.0871300863650717,-0.05327935396832828,-0.042028487950052984,0.07475605256603866,0.28865953645936726,0.08980072095575375,0.35615824709061883,0.46060184536046656,0.09019189856914522
479000000,255,479000000,,base_to_link1,link1_to_link2,link2_to_link3,-1.0870569998614528,-0.05299462931768861,-0.041939896120148035,0.07308650391446296,0.28472497037646044,0.08859181713295905,0.35709515297075,0.46166070484861876,0.09050547958104893
480000000,256,480000000,,base_to_link1,link1_to_link2,link2_to_link3,-1.0869855679668685,-0.05271382786258805,-0.041852510345666616,0.07143189487677408,0.2808017744815896,0.08738576184602748,0.35803383658322474,0.46274802413717175,0.09082846524027133
481000000,257,481000000,,base_to_link1,link1_to_link2,link2_to_link3,-1.0869157757222494,-0.052436937757530444,-0.041766327616941545,0.0697922449100835,0.2768904240110624,0.08618271622809698,0.35897412667205586,0.4638632051252678,0.09116066291898761
482000000,258,482000000,,base_to_link1,link1_to_link2,link2_to_link3,-1.0868476081514373,-0.05216394669088942,-0.04168134476615837,0.06816757109972178,0.27299138509707477,0.08498283842645832,0.3599158541909997,0.46500565411765393,0.09150188138808524
483000000,259,483000000,,base_to_link1,link1_to_link2,link2_to_link3,-1.0867810502635349,-0.051894841893945554,-0.04159755847032276,0.06655788818786959,0.2691051148300874,0.0837862836206218,0.36085885228992254,0.4661747818678208,0.0918519308221466
484000000,260,484000000,,base_to_link1,link1_to_link2,link2_to_link3,-1.086716087055212,-0.05162961014987033,-0.0415149652542075,0.06496320860619363,0.26523206132077837,0.08259320404376086,0.3618029563205294,0.46737000359554415,0.0922106228113595
485000000,261,485000000,,base_to_link1,link1_to_link2,link2_to_link3,-1.0866527035129891,-0.05136823780263988,-0.04143356149327815,0.06338354250442853,0.26137266376226576,0.08140374900279579,0.3627480038167974,0.4685907390234334,0.09257777037055881
486000000,262,486000000,,base_to_link1,link1_to_link2,link2_to_link3,-1.0865908846154868,-0.05111071076589191,-0.041353343416597355,0.061818897780501925,0.2575273524935993,0.08021806489928562,0.36369383449471826,0.4698364123959031,0.09295318794716678
487000000,263,487000000,,base_to_link1,link1_to_link2,link2_to_link3,-1.0865306153356533,-0.050857014531714206,-0.04127430710971414,0.06026928011054016,0.2536965490639753,0.07903629524892619,0.364640290240148,0.4711064525108988,0.0933366914289202
488000000,264,488000000,,base_to_link1,link1_to_link2,link2_to_link3,-1.0864718806429483,-0.050607134179371904,-0.0411964485175238,0.058734692979346616,0.249880666295269,0.07785858070572238,0.36558721511066317,0.4724002927393922,0.09372809815766381
489000000,265,489000000,,base_to_link1,link1_to_link2,link2_to_link3,-1.0864146655055134,-0.050361054383968984,-0.041119763447108326,0.057215137708311596,0.24608010834832902,0.0766850590801984,0.3665344553120953,0.4737173710513698,0.09412722692863973
490000000,266,490000000,,base_to_link1,link1_to_link2,link2_to_link3,-1.0863589548922974,-0.05011875942504673,-0.041044247570562575,0.05571061348592796,0.24229527078749447,0.07551586536052637,0.3674818592078033,0.47505713003672234,0.09453389799935152
491000000,267,491000000,,base_to_link1,link1_to_link2,link2_to_link3,-1.0863047337751706,-0.04988023319510937,-0.040969896427793806,0.054221117395699486,0.23852654064629705,0.07435113173502023,0.3684292772946307,0.476419016928169,0.09494793310361516
492000000,268,492000000,,base_to_link1,link1_to_link2,link2_to_link3,-1.0862519871309892,-0.049645459208096376,-0.04089670542929724,0.052746644447731854,0.23477429649219922,0.07319098761518489,0.3693765622124978,0.47780248361368294,0.09536915545290903
493000000,269,493000000,,base_to_link1,link1_to_link2,link2_to_link3,-1.0862006999436504,-0.04941442060777668,-0.04082466985891564,0.051287187604289686,0.23103890849452258,0.07203555965407166,0.3703235687162021,0.47920698666792383,0.09579738974014873
494000000,270,494000000,,base_to_link1,link1_to_link2,link2_to_link3,-1.0861508572061034,-0.0491871001760833,-0.04075378487657133,0.049842737811148126,0.2273207384903191,0.07088497177053785,0.3712701536853036,0.48063198735802004,0.09623246215129555
495000000,271,495000000,,base_to_link1,link1_to_link2,link2_to_link3,-1.0861024439223401,-0.04896348034137432,-0.04068404552098315,0.04841328402434379,0.2236201400515242,0.06973934516911753,0.3722161761016096,0.48207695166740727,0.09667420036514329
496000000,272,496000000,,base_to_link1,link1_to_link2,link2_to_link3,-1.0860554451093591,-0.04874354318663787,-0.04061544671235584,0.04699881323987085,0.2199374585522941,0.06859879836431315,0.3731614970477626,0.48354135030471923,0.09712243356538863
497000000,273,497000000,,base_to_link1,link1_to_link2,link2_to_link3,-1.0860098457990972,-0.0485272704576154,-0.04054798325504727,0.045599310521442955,0.21627303123666433,0.06746344720100245,0.3741059797002322,0.4850246587298823,0.09757699243999163
498000000,274,498000000,,base_to_link1,link1_to_link2,link2_to_link3,-1.0859656310403238,-0.04831464357086723,-0.040481649840218736,0.04421475902901958,0.21262718728664656,0.06633340487681788,0.37504948931665893,0.486526357153636,0.09803770918564325
499000000,275,499000000,,base_to_link1,link1_to_link2,link2_to_link3,-1.0859227859005331,-0.04810564362176528,-0.04041644104846043,0.04284514004521989,0.20900024789086413,0.06520878196448698,0.3759918932174955,0.48804593056045675,0.09850441751739325
500000000,276,500000000,,base_to_link1,link1_to_link2,link2_to_link3,-1.0858812954677806,-0.047900251392420046,-0.04035235135238757,0.04149043300606981,0.20539252631172286,0.06408968643615334,0.3769330608022603,0.4895828687156545,0.0989769526700357
501000000,277,501000000,,base_to_link1,link1_to_link2,link2_to_link3,-1.0858411448525054,-0.04769844735953477,-0.04028937511922681,0.04015061552586097,0.2018043279564922,0.06297622368151129,0.3778728635128381,0.4911366661789174,0.09945515139476058
502000000,278,502000000,,base_to_link1,link1_to_link2,link2_to_link3,-1.0858023191893302,-0.04750021170219387,-0.0402275066133706,0.038825663426138475,0.19823595044450057,0.061868496534038864,0.3788111748374945,0.49270682231002283,0.09993885197524754
503000000,279,503000000,,base_to_link1,link1_to_link2,link2_to_link3,-1.0857648036388143,-0.04730552430958035,-0.040166739998914736,0.037515550763421404,0.19468768367698058,0.060766605292312176,0.3797478703057777,0.4942928412809966,0.10042789422123555
504000000,280,504000000,,base_to_link1,link1_to_link2,link2_to_link3,-1.0857285833892067,-0.04711436478862652,-0.04010706934216657,0.03622024985494712,0.1911598099066304,0.05967064774314801,0.38068282745986615,0.4958942320822324,0.10092211947702268
505000000,281,505000000,,base_to_link1,link1_to_link2,link2_to_link3,-1.0856936436581437,-0.046926712471589305,-0.040048488614137234,0.034939731307784126,0.1876526038071711,0.05858071918324401,0.3816159258721008,0.4975105085323861,0.10142137061723844
506000000,282,506000000,,base_to_link1,link1_to_link2,link2_to_link3,-1.0856599696943432,-0.04674254642356512,-0.03999099169300546,0.03367396404425364,0.18416633254353543,0.0574969124425829,0.3825470471060033,0.4991411892786335,0.10192549205577883
507000000,283,507000000,,base_to_link1,link1_to_link2,link2_to_link3,-1.0856275467792553,-0.04656184544992126,-0.03993457236656983,0.03242291532928494,0.1807012558420361,0.05641931790589447,0.38347607473055767,0.5007857978114227,0.10243432974202271
508000000,284,508000000,,base_to_link1,link1_to_link2,link2_to_link3,-1.0855963602286982,-0.0463845881036713,-0.039879224334657515,0.031186550797934573,0.17725762605880818,0.055348023539943864,0.3844028942923039,0.5024438624552996,0.10294773117380807
509000000,285,509000000,,base_to_link1,link1_to_link2,link2_to_link3,-1.0855663953944568,-0.04621075269277064,-0.039824941211533904,0.029964834480800884,0.1738356882527589,0.05428311491007326,0.3853273933174872,0.5041149163867065,0.10346554537799868
510000000,286,510000000,,base_to_link1,link1_to_link2,link2_to_link3,-1.0855376376658628,-0.04604031728734537,-0.03977171652826872,0.028757728831107374,0.17043568025380607,0.053224675208345035,0.3862494612907419,0.5057984976270014,0.1039876229354686
511000000,287,511000000,,base_to_link1,link1_to_link2,link2_to_link3,-1.0855100724713482,-0.04587325972685008,-0.03971954373509767,0.027565194750409194,0.16705783273499625,0.05217278527257024,0.3871689896522401,0.5074941490481333,0.10451381596124243
512000000,288,512000000,,base_to_link1,link1_to_link2,link2_to_link3,-1.085483685279966,-0.04570955762715467,-0.039668416203742396,0.02638719161610345,0.1637023692813674,0.051127523613571646,0.38808587178658094,0.5092014183731663,0.10504397812367117
513000000,289,513000000,,base_to_link1,link1_to_link2,link2_to_link3,-1.0854584616028937,-0.045549188387560946,-0.039618327229725026,0.025223677305851268,0.16036950646273773,0.05008896643333169,0.38900000300513327,0.5109198581760932,0.10557796462588698
514000000,290,514000000,,base_to_link1,link1_to_link2,link2_to_link3,-1.0854343869949012,-0.045392129197748154,-0.03956927003464461,0.024074608224578044,0.15705945390237733,0.04905718765245373,0.3899112805441973,0.512649025881835,0.10611563222362008
515000000,291,515000000,,base_to_link1,link1_to_link2,link2_to_link3,-1.085411447055801,-0.0452383570446484,-0.03952123776844463,0.022939939329572747,0.15377241434969333,0.04803225892935478,0.3908196035441591,0.5143884837646429,0.10665683920977109
516000000,292,516000000,,base_to_link1,link1_to_link2,link2_to_link3,-1.0853896274318728,-0.045087848719248314,-0.039474223511641426,0.0218196241563113,0.15050858374971052,0.047014249686741894,0.39172487304533377,0.5161377989466853,0.10720144542820442
517000000,293,517000000,,base_to_link1,link1_to_link2,link2_to_link3,-1.0853689138172555,-0.04494058082332408,-0.03942822027754911,0.02071361484428002,0.14726815131462948,0.046003227131306584,0.3926269919782399,0.5178965433923466,0.10774931225695283
518000000,294,518000000,,base_to_link1,link1_to_link2,link2_to_link3,-1.0853492919553185,-0.04479652977610549,-0.03938322101446179,0.019621862162238747,0.14405129959420837,0.04499925628069909,0.3935258651428697,0.5196642939089635,0.10830030262691359
519000000,295,519000000,,base_to_link1,link1_to_link2,link2_to_link3,-1.0853307476400094,-0.04465567182086083,-0.039339218607826965,0.018544315532479774,0.14085820454730905,0.04400239998255068,0.3944213992037593,0.5214406321424114,0.10885428100103844
520000000,296,520000000,,base_to_link1,link1_to_link2,link2_to_link3,-1.0853132667171739,-0.044517983031425956,-0.0392962058823878,0.017480923057374514,0.13768903561226975,0.043012718940816874,0.39531350267859366,0.5232251445639058,0.10941111338718557
521000000,297,521000000,,base_to_link1,link1_to_link2,link2_to_link3,-1.0852968350858525,-0.04438343931864708,-0.039254175604305,0.016431631542812148,0.13454395577817052,0.0420302717361698,0.3962020859238713,0.5250174224793369,0.10997066732845617
522000000,298,522000000,,base_to_link1,link1_to_link2,link2_to_link3,-1.085281438699547,-0.04425201643675969,-0.03921312048325998,0.015396386524151488,0.1314231216555153,0.04105511485007732,0.397087061124779,0.5268170620075452,0.110532811903985
523000000,299,523000000,,base_to_link1,link1_to_link2,link2_to_link3,-1.0852670635674748,-0.04412368998970262,-0.039173033174527916,0.014375132290018423,0.1283266835465998,0.0400873026891696,0.3979683422776592,0.5286236640801611,0.11109741773132065
524000000,300,524000000,,base_to_link1,link1_to_link2,link2_to_link3,-1.0852536957557835,-0.04399843543734683,-0.03913390628102853,0.013367811907493981,0.1252547855166532,0.0391268876066633,0.3988458451901167,0.5304368344399091,0.11166435695695753
525000000,301,525000000,,base_to_link1,link1_to_link2,link2_to_link3,-1.085241321388751,-0.043876228101668246,-0.03909573235536001,0.012374367245744292,0.12220756546493444,0.0381739199248258,0.3997194874540888,0.5322561836176298,0.11223350325463954
526000000,302,526000000,,base_to_link1,link1_to_link2,link2_to_link3,-1.0852299266499639,-0.04375704317284068,-0.03905850390180632,0.011394739000666681,0.11918515519451325,0.03722844795907025,0.40058918844274594,0.534081326938054,0.11280473182882389
527000000,303,527000000,,base_to_link1,link1_to_link2,link2_to_link3,-1.0852194977834557,-0.043640855715262106,-0.039022213378317794,0.010428866719106743,0.11618768048279812,0.03629051804156169,0.40145486930006413,0.5359118845007949,0.1133779194081086
528000000,304,528000000,,base_to_link1,link1_to_link2,link2_to_link3,-1.0852100210948432,-0.04352764067350989,-0.03898685319847672,0.009476688821817044,0.113215261153192,0.035360174541445244,0.40231645291402884,0.537747481173998,0.11395294423839353
529000000,305,529000000,,base_to_link1,link1_to_link2,link2_to_link3,-1.0852014829524226,-0.043417372878223226,-0.03895241573343178,0.008538142628444536,0.1102680111434512,0.03443745989054178,0.40317386392354493,0.5395877465828391,0.11452968608743674
530000000,306,530000000,,base_to_link1,link1_to_link2,link2_to_link3,-1.0851938697882488,-0.04331002705192155,-0.03891889331381915,0.007613164380459483,0.10734603857785506,0.033522414603890494,0.404027028691214,0.541432315095518,0.11510802623311278
531000000,307,531000000,,base_to_link1,link1_to_link2,link2_to_link3,-1.0851871680991891,-0.04320557781474488,-0.03888627823164903,0.0067016892644528635,0.10444944583543343,0.03261507730476863,0.40487587529636215,0.5432808258174937,0.11568784746930127
532000000,308,532000000,,base_to_link1,link1_to_link2,link2_to_link3,-1.0851813644479558,-0.043103999690130124,-0.03885456274218235,0.00580365143582009,0.1015783296213993,0.03171548474468677,0.40572033351981673,0.545132922570728,0.11626903409011291
533000000,309,533000000,,base_to_link1,link1_to_link2,link2_to_link3,-1.085176445464116,-0.04300526711041641,-0.038823739065773744,0.0049189840418569575,0.09873278103611413,0.030823671828812488,0.4065603348338076,0.5469882538865001,0.11685147189888667
534000000,310,534000000,,base_to_link1,link1_to_link2,link2_to_link3,-1.0851723978450707,-0.0429093544223802,-0.038793799389697625,0.004047619244768376,0.09591288564467017,0.029939671636635773,0.40739581238897316,0.5488464729904052,0.11743504819286876
535000000,311,535000000,,base_to_link1,link1_to_link2,link2_to_link3,-1.0851692083570246,-0.04281623589269756,-0.03876473586995388,0.0031894882439678436,0.09311872354736611,0.029063515444329127,0.4082267009930618,0.5507072377875399,0.11801965176459817
536000000,312,536000000,,base_to_link1,link1_to_link2,link2_to_link3,-1.085166863835921,-0.042725885713345235,-0.038736540633043326,0.002344521299748963,0.09035036944719106,0.028195232749913354,0.40905293711174906,0.5525702108442943,0.1186051728995352
537000000,313,537000000,,base_to_link1,link1_to_link2,link2_to_link3,-1.085165351188361,-0.04263827800692521,-0.03870920577772807,0.0015126477551364237,0.08760789272051715,0.027334851292434237,0.40987445884335116,0.5544350593810776,0.11919150336361817
538000000,314,538000000,,base_to_link1,link1_to_link2,link2_to_link3,-1.0851646573924958,-0.04255338683192189,-0.03868272337676437,0.0006937960585713806,0.08489135748561086,0.02648239707607347,0.4106912059111334,0.5563014552491818,0.11977853640576797
539000000,315,539000000,,base_to_link1,link1_to_link2,link2_to_link3,-1.0851647694989017,-0.04247118618789525,-0.038657085478621234,-0.0001121062143050578,0.08220082267109813,0.025637894391672952,0.4115031196473762,0.5581690749158508,0.12036616674768297
540000000,316,540000000,,base_to_link1,link1_to_link2,link2_to_link3,-1.0851656746314289,-0.04239165002059675,-0.03863228410916264,-0.0009051323380352649,0.07953634208437738,0.024801365840815756,0.41231014298257485,0.5600375994522633,0.1209542905868144
541000000,317,541000000,,base_to_link1,link1_to_link2,link2_to_link3,-1.0851673599880334,-0.04231475222702841,-0.03860831127332176,-0.0016853564157887815,0.07689796448043676,0.023972832355197246,0.4131122204290616,0.5619067145074208,0.1215428055767731
542000000,318,542000000,,base_to_link1,link1_to_link2,link2_to_link3,-1.0851698128415768,-0.04224046666041925,-0.03858515895674852,-0.0024528533571360916,0.0742857336295438,0.02315231322025911,0.41390929807245236,0.5637761103018946,0.12213161083607815
543000000,319,543000000,,base_to_link1,link1_to_link2,link2_to_link3,-1.0851730205406183,-0.04216876713515205,-0.038562819127426984,-0.0032076988570627503,0.07169968838490162,0.022339826098755622,0.4147013235467778,0.5656454815949896,0.12272060693798714
544000000,320,544000000,,base_to_link1,link1_to_link2,link2_to_link3,-1.085176970510175,-0.042099627431603004,-0.03854128373728383,-0.00394996937448967,0.06913986275145823,0.021535387048237112,0.41548824603530043,0.5675145276842741,0.1233096958964719
545000000,321,545000000,,base_to_link1,link1_to_link2,link2_to_link3,-1.0851816502524665,-0.04203302130092812,-0.03852054472377109,-0.004679742110652862,0.06660628595186674,0.020739010547111705,0.416270016246143,0.5693829523669347,0.12389878117342157
546000000,322,546000000,,base_to_link1,link1_to_link2,link2_to_link3,-1.085187047347632,-0.041968922469780345,-0.038500594011415146,-0.005397094987506493,0.06409898249350238,0.019950709516728046,0.41704658640374426,0.5712504639343496,0.12448776766871283
547000000,323,547000000,,base_to_link1,link1_to_link2,link2_to_link3,-1.0851931494544393,-0.041907304644949406,-0.03848142351336303,-0.006102106628737397,0.06161797223760293,0.019170495337760163,0.41781791022938997,0.5731167751499822,0.12507656170194892
548000000,324,548000000,,base_to_link1,link1_to_link2,link2_to_link3,-1.0851999443109515,-0.04184814151795191,-0.038463025132894124,-0.006794856336110006,0.059163270462565885,0.018398377878367234,0.4185839429394189,0.5749816032185073,0.12566507102525826
549000000,325,549000000,,base_to_link1,link1_to_link2,link2_to_link3,-1.0852074197351955,-0.04179140676953974,-0.03844539076491582,-0.007475424071746963,0.05673488793338816,0.01763436551097706,0.41934464120925163,0.5768446697819751,0.12625320480377233
550000000,326,550000000,,base_to_link1,link1_to_link2,link2_to_link3,-1.0852155636258045,-0.041737074074150726,-0.03842851229743349,-0.00814389043601614,0.05433283096540583,0.01687846513675332,0.42009996318363996,0.578705700883182,0.1268408736145954
551000000,327,551000000,,base_to_link1,link1_to_link2,link2_to_link3,-1.085224363962623,-0.04168511710429357,-0.038412381613001756,-0.008800336646792584,0.0519571014910245,0.016130682205501547,0.420849868454658,0.5805644269524457,0.12742798943574662
552000000,328,552000000,,base_to_link1,link1_to_link2,link2_to_link3,-1.0852338088073124,-0.041635509534862614,-0.038396990590158886,-0.009444844521228622,0.0496076971260217,0.015391020735665492,0.42159431803223235,0.5824205827857298,0.12801446564202124
553000000,329,553000000,,base_to_link1,link1_to_link2,link2_to_link3,-1.0852438863039326,-0.04158822504738868,-0.038382331104830136,-0.01007749645452219,0.04728461123324046,0.014659483338532009,0.4223332743501995,0.5842739075176251,0.12860021700245916
554000000,330,554000000,,base_to_link1,link1_to_link2,link2_to_link3,-1.0852545846794976,-0.04154323733423393,-0.038368395031719515,-0.010698375399946603,0.044987832987797766,0.01393607123741171,0.42306670124724555,0.5861241445999088,0.12918515966329203
555000000,331,555000000,,base_to_link1,link1_to_link2,link2_to_link3,-1.0852658922445118,-0.04150052010270411,-0.038355174245671364,-0.011307564849972735,0.04271734744256708,0.013220784288717854,0.42379456394759707,0.5879710417875383,0.1297692111503146
556000000,332,556000000,,base_to_link1,link1_to_link2,link2_to_link3,-1.0852777973934886,-0.041460047079116435,-0.03834266062302394,-0.011905148816425147,0.040473135591859624,0.012513621002117448,0.42451682904684596,0.5898143510971732,0.13035229035230245
557000000,333,557000000,,base_to_link1,link1_to_link2,link2_to_link3,-1.085290288605461,-0.04142179201279017,-0.03833084604292658,-0.012491211812067677,0.03825517443523406,0.011814578563365943,0.4252334644993727,0.5916538288034445,0.13093431752655427
558000000,334,558000000,,base_to_link1,link1_to_link2,link2_to_link3,-1.085303354444446,-0.041385728679973255,-0.038319722388651556,-0.013065838829840524,0.036063437041486554,0.011123652852343485,0.42594443961456285,0.5934892354015897,0.13151521427564816
559000000,335,559000000,,base_to_link1,link1_to_link2,link2_to_link3,-1.0853169835599283,-0.04135183088771743,-0.03830928154887214,-0.013629115326028778,0.033897892611516614,0.010440838466689771,0.426649725017052,0.5953203355827696,0.132094903555231
560000000,336,560000000,,base_to_link1,link1_to_link2,link2_to_link3,-1.0853311646872816,-0.041320072477682324,-0.03829951541892651,-0.01418112719898328,0.03175850654096094,0.009766128739904276,0.4273492926693212,0.5971468982213057,0.13267330965304858
561000000,337,561000000,,base_to_link1,link1_to_link2,link2_to_link3,-1.0853458866482084,-0.04129042732986843,-0.038290415902068275,-0.014721960773851437,0.029645240485333322,0.009099515759828047,0.42804311581373433,0.5989686963416663,0.1332503581873734
562000000,338,562000000,,base_to_link1,link1_to_link2,link2_to_link3,-1.0853611383511383,-0.04126286936630841,-0.03828197491067975,-0.015251702781116896,0.027558052418113186,0.008440990395351053,0.42873116899648345,0.6007855070847423,0.13382597610618774
563000000,339,563000000,,base_to_link1,link1_to_link2,link2_to_link3,-1.0853769087916296,-0.04123737255467841,-0.03827418436748076,-0.015770440340858304,0.025496896696435793,0.007790542309285227,0.42941342802893523,0.602597111703016,0.1344000916620125
568000000,340,564000000,,base_to_link1,link1_to_link2,link2_to_link3,-1.0853931870527154,-0.041213910911854335,-0.03826703620671079,-0.016278260941960866,0.023461724120527692,0.007148159982824989,0.43008986999519827,0.6044032955167378,0.13497263441955454
569000000,341,569000000,,base_to_link1,link1_to_link2,link2_to_link3,-1.0854818197408624,-0.041126224699855385,-0.03824064978888764,-0.01865669542166722,0.013673645189308699,0.004056751266135106,0.43338410771492697,0.6133456706603013,0.13780938135814935
570000000,342,570000000,,base_to_link1,link1_to_link2,link2_to_link3,-1.0855009206110777,-0.04111443161226891,-0.03823718733084647,-0.019100870081428706,0.011793146815514409,0.003462457841439299,0.4340252345553619,0.6151150462432398,0.1383710802721616
571000000,343,571000000,,base_to_link1,link1_to_link2,link2_to_link3,-1.0855204553603217,-0.041104493475210724,-0.03823431121266552,-0.01953474910927529,0.009938192712879684,0.0028761180739445245,0.4346604179136815,0.6168776101361662,0.13893074921103477
572000000,344,572000000,,base_to_link1,link1_to_link2,link2_to_link3,-1.0855404137827849,-0.04109638481991773,-0.038232013500963724,-0.0199584223307788,0.008108707404762947,0.002297711686823873,0.43528964443482643,0.6186331792938748,0.13948832788944543
573000000,345,573000000,,base_to_link1,link1_to_link2,link2_to_link3,-1.085560785762703,-0.04109008025612493,-0.03823028628364522,-0.02037197978904017,0.006304612396360931,0.0017272173943826867,0.4359129018786323,0.620381574506137,0.14004375725158447
574000000,346,574000000,,base_to_link1,link1_to_link2,link2_to_link3,-1.0855815612745596,-0.04108555447502127,-0.038229121670888766,-0.020775511727343966,0.00452582623260694,0.001164612920724584,0.4365301791327614,0.6221226203683994,0.14059697946168903
575000000,347,575000000,,base_to_link1,link1_to_link2,link2_to_link3,-1.0856027303832567,-0.04108278225215933,-0.03822851179612208,-0.021169108572233968,0.0027722645545984457,0.0006098750192731609,0.4371414661898587,0.6238561452465063,0.1411479378961733
576000000,348,576000000,,base_to_link1,link1_to_link2,link2_to_link3,-1.0856242832443028,-0.04108173845029128,-0.038228448816970406,-0.021552860919952406,0.0010438401579478524,6.297949065847859e-05,0.43774675411728303,0.6255819812596108,0.14169657713827277
577000000,349,577000000,,base_to_link1,link1_to_link2,link2_to_link3,-1.085646210103941,-0.041082398022169286,-0.0382289249161909,-0.021926859517344622,-0.0006595369524991481,-0.0004760987973876483,0.4383460350767532,0.6272999642348154,0.1422428429617728
578000000,350,578000000,,base_to_link1,link1_to_link2,link2_to_link3,-1.0856685012993124,-0.04108473601327489,-0.0382299323025963,-0.02229119525111383,-0.0023379595034478786,-0.0010073858955280636,0.43893930226523103,0.6290099336996491,0.14278668232614145
579000000,351,579000000,,base_to_link1,link1_to_link2,link2_to_link3,-1.0856911472585606,-0.04108872756448889,-0.03823146321193338,-0.022645959127256286,-0.0039915229010935565,-0.0015309087482279493,0.43952654995208285,0.6307117328383072,0.1433280433751083
580000000,352,580000000,,base_to_link1,link1_to_link2,link2_to_link3,-1.0857141385009355,-0.04109434791472921,-0.03823350990779151,-0.022991242259902647,-0.00562032517179435,-0.0020466951849268675,0.44010777342150753,0.6324052084588416,0.14386687540015153
581000000,353,581000000,,base_to_link1,link1_to_link2,link2_to_link3,-1.0857374656369059,-0.04110157240350176,-0.03823606468243401,-0.023327135855602945,-0.007224466910065628,-0.00255477389166601,0.4406829689717906,0.6340902109875657,0.14440312887978202
582000000,354,582000000,,base_to_link1,link1_to_link2,link2_to_link3,-1.0857611193682173,-0.041110376473421084,-0.03823911985766859,-0.02365373119649787,-0.008804051222083505,-0.0030551744031803007,0.44125213392709917,0.6357665944075208,0.14493675541058515
583000000,355,583000000,,base_to_link1,link1_to_link2,link2_to_link3,-1.0857850904879554,-0.04112073567266883,-0.038242667785651996,-0.02397111962758498,-0.010359183673699285,-0.0035479270759050593,0.44181526658120696,0.6374342162534852,0.14546770775500484
584000000,356,584000000,,base_to_link1,link1_to_link2,link2_to_link3,-1.08580936988061,-0.04113262565739717,-0.03824670084971782,-0.02427939254353936,-0.011889972232740787,-0.004033063080854871,0.44237236620523923,0.6390929375743859,0.1459959397836652
585000000,357,585000000,,base_to_link1,link1_to_link2,link2_to_link3,-1.0858339485220894,-0.04114602219407715,-0.03825121146515098,-0.024578641371105155,-0.01339652722053732,-0.004510614376064297,0.4429234330483123,0.6407426229022661,0.14652140650674106
586000000,358,586000000,,base_to_link1,link1_to_link2,link2_to_link3,-1.0858588174797523,-0.04116090116179549,-0.03825619207998354,-0.024868957558543535,-0.014878961254612648,-0.004980613698434893,0.4434684682879375,0.6423831402207014,0.14704406402841208
587000000,359,587000000,,base_to_link1,link1_to_link2,link2_to_link3,-1.0858839679124168,-0.04117723855451416,-0.03826163517572301,-0.025150432558897807,-0.016337389200569777,-0.005443094535813826,0.4440074740481048,0.6440143609362536,0.1475638695761372
588000000,360,588000000,,base_to_link1,link1_to_link2,link2_to_link3,-1.0859093910703388,-0.04119501048323926,-0.03826753326812504,-0.025423157818719587,-0.017771928114353772,-0.005898091125732606,0.4445404533762787,0.6456361598637628,0.14808078144043613
589000000,361,589000000,,base_to_link1,link1_to_link2,link2_to_link3,-1.0859350782952015,-0.04121419317819175,-0.03827387890789158,-0.02568722476293937,-0.019182697197266178,-0.006345638420496281,0.445067410212987,0.647248415157442,0.14859475902702535
590000000,362,590000000,,base_to_link1,link1_to_link2,link2_to_link3,-1.0859610210200836,-0.041234762990868035,-0.03828066468139202,-0.025942724783352144,-0.020569817738137586,-0.006785772086689255,0.4455883494023727,0.6488510083343613,0.1491057627891923
591000000,363,591000000,,base_to_link1,link1_to_link2,link2_to_link3,-1.085987210769404,-0.04125669639610763,-0.03828788321135068,-0.02618974922287952,-0.02193341306840073,-0.007218528476702752,0.4461032766705575,0.6504438241849186,0.14961375425809997
592000000,364,592000000,,base_to_link1,link1_to_link2,link2_to_link3,-1.0860136391588666,-0.04127996999406491,-0.03829552715752005,-0.026428389365443006,-0.02327360850742216,-0.007643944619505381,0.44661219860199886,0.6520267508006228,0.15011869601591066
593000000,365,593000000,,base_to_link1,link1_to_link2,link2_to_link3,-1.0860402978953827,-0.04130456051215248,-0.03830358921733268,-0.02665873642128127,-0.024590531314936045,-0.0080620582010957,0.44711512263893916,0.6535996794978871,0.15062055168830746
594000000,366,594000000,,base_to_link1,link1_to_link2,link2_to_link3,-1.0860671787769887,-0.04133044480693826,-0.03831206212656202,-0.026880881516269346,-0.025884310639624725,-0.008472907552512007,0.4476120570575315,0.6551625048090415,0.15111928592969726
595000000,367,595000000,,base_to_link1,link1_to_link2,link2_to_link3,-1.0860942736927575,-0.04135759986597165,-0.03832093865992814,-0.027094915677719995,-0.027155077472728627,-0.008876531626062875,0.4481030109634698,0.6567151244551184,0.15161486443870054
596000000,368,596000000,,base_to_link1,link1_to_link2,link2_to_link3,-1.086121574622669,-0.041386002809597144,-0.038330211631715905,-0.027300929821426314,-0.028402964598403926,-0.009272969985472983,0.44858799428399543,0.6582574392930596,0.1521072539091417
597000000,369,597000000,,base_to_link1,link1_to_link2,link2_to_link3,-1.0861490736374995,-0.04141563089267741,-0.03833987389636828,-0.027499014743868136,-0.02962810654311358,-0.009662262791972031,0.44906701772574387,0.6597893533214183,0.1525964220486653
598000000,370,598000000,,base_to_link1,link1_to_link2,link2_to_link3,-1.086176762898691,-0.04144646150630571,-0.03834991834907253,-0.0276892611065855,-0.030830639530716564,-0.010044450784671383,0.44954009279318363,0.6613107736069956,0.15308233755980005
599000000,371,599000000,,base_to_link1,link1_to_link2,link2_to_link3,-1.086204634658201,-0.041478472179441894,-0.03836033792631621,-0.027871759425271973,-0.03201070143522736,-0.010419575264169437,0.45000723176598534,0.6628216102913065,0.1535649701387154
600000000,372,600000000,,base_to_link1,link1_to_link2,link2_to_link3,-1.0862326812583403,-0.041511640580530695,-0.038371125606430745,-0.028046600058063163,-0.033168431733027984,-0.010787678079321093,0.450468447679766,0.6643217765305565,0.15404429045058343
601000000,373,601000000,,base_to_link1,link1_to_link2,link2_to_link3,-1.0862608951316188,-0.041545944519040034,-0.03838227441013853,-0.028213873197166752,-0.03430397145470986,-0.01114880161715999,0.450923754310244,0.665811188494061,0.15452027012258007
602000000,374,602000000,,base_to_link1,link1_to_link2,link2_to_link3,-1.0862892688005479,-0.04158136194698514,-0.03839377740106098,-0.028373668853066206,-0.03541746314329506,-0.011502988777523683,0.45137316618236945,0.6672897652996923,0.15499288175290893
603000000,375,603000000,,base_to_link1,link1_to_link2,link2_to_link3,-1.0863177948774743,-0.04161787096038516,-0.03840562768622657,-0.028526076848069785,-0.03650905080471617,-0.01185028296702996,0.45181669852214945,0.6687574290149101,0.15546209887680185
604000000,376,604000000,,base_to_link1,link1_to_link2,link2_to_link3,-1.0863464660643496,-0.041655449800687805,-0.03841781841655756,-0.028671186800880998,-0.03757887986559573,-0.012190728078858404,0.4522543672887469,0.6702141046038257,0.15592789597159928
605000000,377,605000000,,base_to_link1,link1_to_link2,link2_to_link3,-1.0863752751525455,-0.04169407685614068,-0.0384303427873407,-0.02880908812160627,-0.03862709712641261,-0.012524368482499652,0.452686189106446,0.6716597199094743,0.15639024844030125
606000000,378,606000000,,base_to_link1,link1_to_link2,link2_to_link3,-1.0864042150226156,-0.04173373066312003,-0.038443194038701556,-0.028939869996917594,-0.03965385071823981,-0.01285124900832979,0.45311218130899,0.6730942056142375,0.15684913260028743
607000000,379,607000000,,base_to_link1,link1_to_link2,link2_to_link3,-1.0864332786440665,-0.04177438990742566,-0.03845636545603082,-0.0290636213807503,-0.040659290060723545,-0.013171414927685636,0.45353236188391044,0.6745174952104982,0.1573045256916128
608000000,380,608000000,,base_to_link1,link1_to_link2,link2_to_link3,-1.0864624590751228,-0.04181603342551199,-0.03846985037042838,-0.029180430986639312,-0.041643565814995245,-0.013484911948831377,0.4539467494791172,0.6759295249798392,0.1577564058333092
609000000,381,609000000,,base_to_link1,link1_to_link2,link2_to_link3,-1.086491749462465,-0.04185864020570307,-0.038483642159119036,-0.029290387274288832,-0.042606829844549644,-0.013791786194599844,0.45435536339522464,0.6773302339414045,0.1582047520455898
610000000,382,610000000,,base_to_link1,link1_to_link2,link2_to_link3,-1.0865211430409731,-0.041902189389340094,-0.0384977342458539,-0.029393578442807752,-0.04354923517050851,-0.014092084192593751,0.45475822355450113,0.6787195638480625,0.1586495442255842
611000000,383,611000000,,base_to_link1,link1_to_link2,link2_to_link3,-1.0865506331334567,-0.04194666027190408,-0.03851212010130123,-0.02949009241976058,-0.0444709359306095,-0.01438585286044955,0.4551553505054162,0.6800974591303799,0.15909076313714188
612000000,384,612000000,,base_to_link1,link1_to_link2,link2_to_link3,-1.0865802131503708,-0.04199203230408699,-0.03852679324342301,-0.029580016851916278,-0.04537208733750465,-0.014673139492938712,0.4555467654057299,0.6814638668829787,0.1595283904040823
613000000,385,613000000,,base_to_link1,link1_to_link2,link2_to_link3,-1.0866098765895282,-0.04203828509282559,-0.0385417472378462,-0.029663439096428764,-0.04625284563746006,-0.014953991748217293,0.45593249000543956,0.6828187368237337,0.15996240849974974
614000000,386,614000000,,base_to_link1,link1_to_link2,link2_to_link3,-1.086639617035801,-0.04208539840230152,-0.03855697569819139,-0.029740446211027047,-0.04711336807163807,-0.015228457630688579,0.4563125466403495,0.6841620212668076,0.16039280074539697
615000000,387,615000000,,base_to_link1,link1_to_link2,link2_to_link3,-1.0866694281608043,-0.04213335215488456,-0.0385724722864369,-0.02981112494709051,-0.04795381283123554,-0.015496585489196552,0.45668695821842853,0.6854936750989005,0.1608195512708388
616000000,388,616000000,,base_to_link1,link1_to_link2,link2_to_link3,-1.0866993037226012,-0.04218212643205099,-0.03858823071322082,-0.02987556173938803,-0.048774339023094096,-0.015758423990081233,0.4570557481988846,0.6868136557318394,0.16124264505362085
617000000,389,617000000,,base_to_link1,link1_to_link2,link2_to_link3,-1.0867292375653532,-0.042231701475257566,-0.03860424473817137,-0.02993384269686489,-0.04957510662745473,-0.01601402211405114,0.45741894061053223,0.6881219230868929,0.1616620678598668
618000000,390,618000000,,base_to_link1,link1_to_link2,link2_to_link3,-1.086759223619004,-0.04228205768677462,-0.038620508170176926,-0.02998605359589132,-0.05035627646072717,-0.016263429136379043,0.457776559993226,0.6894184395591019,0.1620778062760042
619000000,391,619000000,,base_to_link1,link1_to_link2,link2_to_link3,-1.0867892558989274,-0.04233317563048722,-0.03863701486771287,-0.03003227987248909,-0.05111801013374068,-0.01650669462588724,0.4581286314284494,0.6907031699847543,0.16248984765106833
620000000,392,620000000,,base_to_link1,link1_to_link2,link2_to_link3,-1.08681932850559,-0.04238503603265009,-0.03865375873907251,-0.03007260661209132,-0.05186047001951864,-0.01674386841523414,0.4584751805002707,0.6919760816174225,0.16289818015681412
621000000,393,621000000,,base_to_link1,link1_to_link2,link2_to_link3,-1.0868494356241838,-0.04243761978260885,-0.03867073374265839,-0.030107118543606575,-0.05258381920952981,-0.01697500060690324,0.4588162333061785,0.693237144089327,0.1633027926941022
622000000,394,622000000,,base_to_link1,link1_to_link2,link2_to_link3,-1.0868795715242632,-0.04249090793349275,-0.038687933887218584,-0.03013590003098152,-0.05328822148145374,-0.017200141547714487,0.4591518164232067,0.694486329384798,0.1637036749562082
623000000,395,623000000,,base_to_link1,link1_to_link2,link2_to_link3,-1.086909730559376,-0.042544881702841764,-0.038705353232088235,-0.030159035066548132,-0.05397384125926517,-0.01741934182455973,0.4594819569096398,0.6957236118187815,0.16410081737611826
624000000,396,624000000,,base_to_link1,link1_to_link2,link2_to_link3,-1.0869399071666832,-0.042599522473246054,-0.03872298588741341,-0.03017660726163292,-0.054640843580154225,-0.017632652246432283,0.4598066822942126,0.6969489679773844,0.16449421113427398
625000000,397,625000000,,base_to_link1,link1_to_link2,link2_to_link3,-1.086970095866568,-0.04265481179289665,-0.038740826014360685,-0.03018869984162935,-0.055289394055767375,-0.01784012383861222,0.46012602056165086,0.698162376736704,0.16488384814304702
626000000,398,626000000,,base_to_link1,link1_to_link2,link2_to_link3,-1.0870002912622487,-0.04271073137614323,-0.03875886782532856,-0.03019539563843982,-0.055919658838486465,-0.018041807828862236,0.4604400001381048,0.6993638191795171,0.16526972103462434
627000000,399,627000000,,base_to_link1,link1_to_link2,link2_to_link3,-1.0870304880393737,-0.04276726310399148,-0.03877710558413039,-0.030196777081980347,-0.0565318045867803,-0.018237755634376858,0.46074864989082975,0.7005532786079627,0.16565182316489846
628000000,400,628000000,,base_to_link1,link1_to_link2,link2_to_link3,-1.0870606809656076,-0.04282438902457564,-0.038795533606179156,-0.03019292619565808,-0.05712599842972401,-0.018428018853111405,0.4610519991063722,0.7017307404881201,0.16603014858687537
629000000,401,629000000,,base_to_link1,link1_to_link2,link2_to_link3,-1.0870908648902367,-0.04288209135359189,-0.038814146258654425,-0.030183924589211736,-0.057702407933517316,-0.018612649250982896,0.4613500774775492,0.7028961924298649,0.1664046920542983
630000000,402,630000000,,base_to_link1,link1_to_link2,link2_to_link3,-1.0871210347437215,-0.04294035247471406,-0.03883293796065512,-0.03016985344989625,-0.05826120106966166,-0.018791698749263785,0.46164291511904487,0.7040496241521232,0.16677544900555397
631000000,403,631000000,,base_to_link1,link1_to_link2,link2_to_link3,-1.0871511855372988,-0.04299915493995066,-0.0388519031833523,-0.030150793541144624,-0.05880254617752509,-0.018965219420321887,0.46193054250964316,0.7051910274692652,0.1671424155509893
632000000,404,632000000,,base_to_link1,link1_to_link2,link2_to_link3,-1.0871813123625254,-0.043058481469993026,-0.03887103645012058,-0.03012682519116164,-0.05932661193624678,-0.01913326346950396,0.4622129905379868,0.7063203962360554,0.1675055884744392
633000000,405,633000000,,base_to_link1,link1_to_link2,link2_to_link3,-1.087211410390851,-0.04311831495450669,-0.038890332336676714,-0.03009802829120598,-0.05983356732889205,-0.019295883230196757,0.4624902904393924,0.7074377263422527,0.1678649652132247
634000000,406,634000000,,base_to_link1,link1_to_link2,link2_to_link3,-1.087241474873168,-0.043178638452422646,-0.03890978547116841,-0.030064482286175163,-0.060323581615330656,-0.019453131144000636,0.46276247382178504,0.7085430156586803,0.16822054386664398
635000000,407,635000000,,base_to_link1,link1_to_link2,link2_to_link3,-1.0872715011393703,-0.04323943519217188,-0.038929390534305774,-0.030026266172958026,-0.0607968242941211,-0.019605059766051543,0.4630295726363176,0.7096362640401388,0.16857232314712256
636000000,408,636000000,,base_to_link1,link1_to_link2,link2_to_link3,-1.0873014845978917,-0.043300688571893176,-0.03894914225943946,-0.029983458491148897,-0.0612534650772883,-0.019751721740413244,0.4632916191836234,0.7107174732709076,0.16892030242416034
637000000,409,637000000,,base_to_link1,link1_to_link2,link2_to_link3,-1.0873314207352403,-0.04336238215961785,-0.03896903543264951,-0.029936137319325196,-0.06169367385737536,-0.019893169797494024,0.46354864608788127,0.7117866470401779,0.1692644816718225
638000000,410,638000000,,base_to_link1,link1_to_link2,link2_to_link3,-1.0873613051155369,-0.043424499693418994,-0.0389890648928235,-0.029884380270918335,-0.06211762067689802,-0.020029456743289514,0.46380068628860904,0.7128437909208074,0.16960486148028586
639000000,411,639000000,,base_to_link1,link1_to_link2,link2_to_link3,-1.087391133380053,-0.04348702508153224,-0.039009225531724034,-0.029828264487582485,-0.06252547569983903,-0.020160635447496356,0.46404777303959754,0.7138889123352854,0.16994144304596226
640000000,412,640000000,,base_to_link1,link1_to_link2,link2_to_link3,-1.08742090124671,-0.043549942402455244,-0.03902951229402429,-0.029767866632957295,-0.06291740918388486,-0.02028675883148423,0.4642899399042921,0.7149220205285189,0.1702742281615155
641000000,413,641000000,,base_to_link1,link1_to_link2,link2_to_link3,-1.087450604509626,-0.04361323590499566,-0.0390499201773844,-0.029703262893536756,-0.06329359144484459,-0.020407879872064508,0.4645272207117035,0.7159431265475114,0.17060321918424215
642000000,414,642000000,,base_to_link1,link1_to_link2,link2_to_link3,-1.087480239038615,-0.043676890008317315,-0.03907044423246209,-0.02963452896661065,-0.06365419283776169,-0.020524051572513913,0.4647596495998396,0.7169522431903275,0.17092841907769163
643000000,415,643000000,,base_to_link1,link1_to_link2,link2_to_link3,-1.0875098007786965,-0.04374088930194375,-0.03909107956295177,-0.029561740060532925,-0.06399938372148027,-0.020635326969087528,0.4649872609627348,0.7179493850047791,0.17124983134604754
644000000,416,644000000,,base_to_link1,link1_to_link2,link2_to_link3,-1.0875392857496076,-0.04380521854573338,-0.039111821325602314,-0.029484970889768213,-0.06432933443392527,-0.020741759115793096,0.465210089456205,0.7189345682458281,0.1715674600629402
645000000,417,645000000,,base_to_link1,link1_to_link2,link2_to_link3,-1.0875686900452957,-0.043869862669836834,-0.03913266473022592,-0.02940429566897359,-0.06464421526534128,-0.020843401074526743,0.46542816999473935,0.7199078108469159,0.17188130985030803
646000000,418,646000000,,base_to_link1,link1_to_link2,link2_to_link3,-1.0875980098334255,-0.04393480677461703,-0.039153605039698114,-0.02931978811099419,-0.06494419642986599,-0.02094030590843872,0.4656415377286738,0.7208691324017735,0.17219138586960447
647000000,419,647000000,,base_to_link1,link1_to_link2,link2_to_link3,-1.0876272413548635,-0.0440000361305497,-0.0391746375699471,-0.029231521420939332,-0.06522944804131,-0.02103252667149333,0.4658502280516874,0.7218185541263189,0.17249769381291635
648000000,420,648000000,,base_to_link1,link1_to_link2,link2_to_link3,-1.087656380923172,-0.044065536178097275,-0.039195757689935995,-0.02913956829413277,-0.06550014008471386,-0.02112011640248418,0.46605427657433474,0.7227560988381221,0.17280023989219906
649000000,421,649000000,,base_to_link1,link1_to_link2,link2_to_link3,-1.087685424924099,-0.04413129252754722,-0.03921696082165571,-0.029044000911961798,-0.06575644239149575,-0.021203128116986936,0.46625371912786484,0.7236817909284987,0.17309903083199352
650000000,422,650000000,,base_to_link1,link1_to_link2,link2_to_link3,-1.0877143698150489,-0.04419729095885394,-0.039238242440053916,-0.02894489093529054,-0.06599852461846556,-0.021281614788641212,0.4664485917555705,0.7245956563253664,0.17339407388001327
651000000,423,651000000,,base_to_link1,link1_to_link2,link2_to_link3,-1.0877432121245674,-0.04426351742140966,-0.03925959807303858,-0.02884230950789965,-0.06622655621353847,-0.02135562936332429,0.4666389306879548,0.7254977224952164,0.17368537674248508
652000000,424,652000000,,base_to_link1,link1_to_link2,link2_to_link3,-1.0877719484518265,-0.04432995803383477,-0.03928102330139449,-0.028736327245924065,-0.06644070640205367,-0.02142522472494092,0.46682477235179043,0.726388018369768,0.17397294765879145
653000000,425,653000000,,base_to_link1,link1_to_link2,link2_to_link3,-1.0878005754660753,-0.04439659908372029,-0.03930251375873883,-0.02862701423785966,-0.06664114415647288,-0.02149045370553955,0.4670061533649683,0.7272665743634121,0.17425679531359428
654000000,426,654000000,,base_to_link1,link1_to_link2,link2_to_link3,-1.087829089906129,-0.04446342702735606,-0.03932406513145903,-0.028514440043321838,-0.06682803817363529,-0.021551369072367252,0.4671831104972579,0.7281334223226743,0.17453692887547057
655000000,427,655000000,,base_to_link1,link1_to_link2,link2_to_link3,-1.0878574885798242,-0.04453042848943056,-0.03934567315863102,-0.028398673686527834,-0.06700155685327319,-0.02160802351767152,0.4673556807024948,0.7289885955092856,0.17481335797852715
656000000,428,656000000,,base_to_link1,link1_to_link2,link2_to_link3,-1.0878857683634875,-0.0445975902627076,-0.03936733363194822,-0.02827978365636085,-0.06716186827326784,-0.021660469655746417,0.4675239010811705,0.7298321285687592,0.17508609270204367
657000000,429,657000000,,base_to_link1,link1_to_link2,link2_to_link3,-1.087913926201396,-0.0446648993076888,-0.03938904239562735,-0.028157837901217595,-0.06730914016935549,-0.02170876001060909,0.46768780888576167,0.7306640575040646,0.17535514358042015
658000000,430,658000000,,base_to_link1,link1_to_link2,link2_to_link3,-1.0879419591052306,-0.04473234275224236,-0.03941079534631253,-0.028032903828617645,-0.06744353991127303,-0.021752947012592477,0.46784744151001867,0.7314844196580417,0.17562052157914287
659000000,431,659000000,,base_to_link1,link1_to_link2,link2_to_link3,-1.0879698641535365,-0.0447999078912229,-0.03943258843298114,-0.027905048301706203,-0.06756523448173307,-0.021793082990905266,0.4680028364746125,0.7322932536759374,0.17588223809204884
660000000,432,660000000,,base_to_link1,link1_to_link2,link2_to_link3,-1.0879976384911787,-0.04486758218605402,-0.03945441765682833,-0.02777433763751204,-0.06767439045570718,-0.02182922016398786,0.46815403142884016,0.7330905994927228,0.1761403049421606
661000000,433,661000000,,base_to_link1,link1_to_link2,link2_to_link3,-1.088025279328785,-0.044935353264309086,-0.03947627907114626,-0.027640837602988386,-0.06777117397969619,-0.0218614106334364,0.4683010641416363,0.7338764982916146,0.17639473435921538
662000000,434,662000000,,base_to_link1,link1_to_link2,link2_to_link3,-1.0880527839422038,-0.045003208919256465,-0.03949816878121748,-0.0275046134161622,-0.0678557507489441,-0.021889706382082694,0.4684439724817846,0.7346509924981071,0.17664553897312807
663000000,435,663000000,,base_to_link1,link1_to_link2,link2_to_link3,-1.0880801496719466,-0.04507113710938704,-0.039520082944167534,-0.02736572974089242,-0.06792828599126839,-0.021914159257989063,0.46858279442848705,0.7354141257398972,0.17689273182713627
664000000,436,664000000,,base_to_link1,link1_to_link2,link2_to_link3,-1.0881073739226332,-0.045139125957936344,-0.03954201776883526,-0.02722425068673804,-0.06798894444399722,-0.021934820976240207,0.468717568049799,0.7361659428243961,0.17713632633546972
665000000,437,665000000,,base_to_link1,link1_to_link2,link2_to_link3,-1.0881344541624403,-0.04520716375236056,-0.03956396951564134,-0.027080239807782173,-0.06803789033501527,-0.021951743111465485,0.46884833150063976,0.7369064897286215,0.17737633629981708
666000000,438,666000000,,base_to_link1,link1_to_link2,link2_to_link3,-1.0881613879225371,-0.04527523894382135,-0.03958593449641956,-0.026933760098336347,-0.06807528736683399,-0.02196497708362767,0.4689751230190442,0.7376358135477723,0.17761277590623514
667000000,439,667000000,,base_to_link1,link1_to_link2,link2_to_link3,-1.0881881727965323,-0.04534334014663166,-0.03960790907427647,-0.026784873994467783,-0.06810129869340709,-0.02197457416360374,0.46909798090987387,0.7383539624989588,0.17784565968615773
668000000,440,668000000,,base_to_link1,link1_to_link2,link2_to_link3,-1.0882148064398978,-0.0454114561376997,-0.03962988966342973,-0.026633643370328298,-0.06811608690541698,-0.021980585458502358,0.46921694354815635,0.7390609858765806,0.17807500254341413
