%time,field.header.seq,field.header.stamp,field.header.frame_id,field.name0,field.name1,field.name2,field.position0,field.position1,field.position2,field.velocity0,field.velocity1,field.velocity2,field.effort0,field.effort1,field.effort2
452000000,231,452000000,,base_to_link1,link1_to_link2,link2_to_link3,-1.0432577367081652,-0.06935839289960466,-0.04439455071139964,0.1160039143446049,0.3720685619213673,0.115308734198661,0.3796315929653282,0.5231898384002687,0.1057555064571325
453000000,232,453000000,,base_to_link1,link1_to_link2,link2_to_link3,-1.0431436499125093,-0.06899016697981164,-0.04428040442803027,0.11408679606899454,0.3682261547777871,0.1141462683799882,0.3804010987099282,0.5233072361015889,0.10576253794140733
454000000,233,454000000,,base_to_link1,link1_to_link2,link2_to_link3,-1.0430314677152808,-0.06862578709755773,-0.04416742272445706,0.11218219763464074,0.3643801177060536,0.1129816886594619,0.38117734902461287,0.5234673845490523,0.10578354099926024
455000000,234,455000000,,base_to_link1,link1_to_link2,link2_to_link3,-1.0429211775065248,-0.06826525619585588,-0.044055607484816406,0.11029020915649158,0.36053113758604743,0.11181522480647371,0.38196012547974334,0.5236696232656257,0.1058183037596816
456000000,235,456000000,,base_to_link1,link1_to_link2,link2_to_link3,-1.0428127665892477,-0.06790857654069882,-0.04394496036670148,0.10841091767291239,0.35667989143708845,0.11064710336287087,0.3827492118647413,0.5239132948006642,0.10586661529583097
457000000,236,457000000,,base_to_link1,link1_to_link2,link2_to_link3,-1.04270622218246,-0.0675557497308823,-0.0438354828043801,0.10654440717831463,0.3528270464563051,0.10947754765292927,0.3835443941708494,0.5241977447938773,0.10592826564041147
458000000,237,458000000,,base_to_link1,link1_to_link2,link2_to_link3,-1.0426015314241894,-0.06720677670778574,-0.04372717601200371,0.10469075865704718,0.34897326005687707,0.10830677779650483,0.3843454605922503,0.5245223220362583,0.10600304581074305
459000000,238,459000000,,base_to_link1,link1_to_link2,link2_to_link3,-1.042498681374453,-0.06686165776512354,-0.043620040986788844,0.10285005011724611,0.3451191799065412,0.10713501072518739,0.38515220152689267,0.5248863785252578,0.10609074783197059
460000000,239,460000000,,base_to_link1,link1_to_link2,link2_to_link3,-1.0423976590182074,-0.06652039255864217,-0.043514078512202126,0.1010223566224406,0.3412654439704626,0.10596246018966476,0.38596440956356837,0.5252892695329869,0.10619116474134493
461000000,240,461000000,,base_to_link1,link1_to_link2,link2_to_link3,-1.0422984512682527,-0.06618298011578627,-0.04340928916112219,0.09920775032654135,0.3374126805507153,0.10478933677849983,0.38678187949188647,0.5257303536490099,0.10630409062362567
462000000,241,462000000,,base_to_link1,link1_to_link2,link2_to_link3,-1.0422010449681158,-0.0658494188453167,-0.043305673298989156,0.09740630050483282,0.33356150833031306,0.1036158479299143,0.3876044082833463,0.5262089928459179,0.10642932061960764
463000000,242,463000000,,base_to_link1,link1_to_link2,link2_to_link3,-1.0421054268948922,-0.0655197065468851,-0.043203231086940797,0.0956180735871469,0.3297125364160725,0.1024421979463988,0.3884317950997396,0.5267245525275488,0.10656665094518125
464000000,243,464000000,,base_to_link1,link1_to_link2,link2_to_link3,-1.0420115837620623,-0.06519384042057119,-0.04310196248493359,0.09384313319027497,0.3258663643836349,0.10126858800956956,0.3892638412807159,0.5272764015812115,0.1067158789093714
465000000,244,465000000,,base_to_link1,link1_to_link2,link2_to_link3,-1.0419195022222683,-0.06487181707635958,-0.04300186725484689,0.09208154014985127,0.32202358232322176,0.10009521619416473,0.39010035034618973,0.5278639124357554,0.10687680293044899
466000000,245,466000000,,base_to_link1,link1_to_link2,link2_to_link3,-1.041829168870069,-0.06455363254358648,-0.04290294496357916,0.0903333525520143,0.31818477088604447,0.09892227748331828,0.3909411279841368,0.5284864610959428,0.10704922255009741
467000000,246,467000000,,base_to_link1,link1_to_link2,link2_to_link3,-1.0417405702446514,-0.06423928228032594,-0.04280519498611923,0.08859862576575064,0.31435050133084874,0.09774996378579082,0.39178598205682924,0.5291434272067175,0.10723293845638082
468000000,247,468000000,,base_to_link1,link1_to_link2,link2_to_link3,-1.041653692832523,-0.06392876118273794,-0.0427086165086088,0.08687741247399328,0.3105213355728569,0.09657846395012276,0.39263472258443066,0.5298341940866713,0.10742775248958836
469000000,248,469000000,,base_to_link1,link1_to_link2,link2_to_link3,-1.0415685230701595,-0.06362206359436051,-0.04261320853138173,0.08516976270537252,0.306697826232522,0.0954079637815966,0.3934871617523772,0.5305581487833333,0.10763346766397675
470000000,249,470000000,,base_to_link1,link1_to_link2,link2_to_link3,-1.041485047346634,-0.06331918331535835,-0.0425189698719981,0.08347572386450298,0.30288051668574867,0.09423864605640886,0.394343113893445,0.5313146821101355,0.10784988817507113
471000000,250,471000000,,base_to_link1,link1_to_link2,link2_to_link3,-1.041403252006206,-0.06302011361170923,-0.042425899168248016,0.08179534076412665,0.299069941114378,0.09307069054092981,0.3952023954962858,0.5321031886953786,0.10807681942467617
472000000,251,472000000,,base_to_link1,link1_to_link2,link2_to_link3,-1.0413231233508835,-0.06272484722435578,-0.042333994881154524,0.08012865565484255,0.2952666245575329,0.09190427400628698,0.39606482518956376,0.5329230670119234,0.10831406802071619
473000000,252,473000000,,base_to_link1,link1_to_link2,link2_to_link3,-1.0412446476429569,-0.06243337637828805,-0.042243255297943705,0.07847570825662613,0.2914710829631725,0.09073957024806922,0.39693022374182263,0.5337737194340697,0.10856144180637628
474000000,253,474000000,,base_to_link1,link1_to_link2,link2_to_link3,-1.0411678111074947,-0.062145692791589546,-0.04215367853500407,0.07683653578904306,0.2876838232419063,0.08957675010161337,0.39779841405840344,0.534654552259104,0.1088187498569404
475000000,254,475000000,,base_to_link1,link1_to_link2,link2_to_link3,-1.041092599934819,-0.06186178768441408,-0.04206526254083531,0.0752111730004927,0.28390534332086714,0.08841598145776125,0.3986692211682108,0.5355649757613445,0.10908580249872735
476000000,255,476000000,,base_to_link1,link1_to_link2,link2_to_link3,-1.0410190002829394,-0.061581651787916414,-0.04197800509896954,0.0735996522004324,0.2801361321966994,0.08725742928496893,0.3995424722280383,0.5365044042126321,0.10936241132792013
477000000,256,477000000,,base_to_link1,link1_to_link2,link2_to_link3,-1.0409469982799715,-0.061305275353134014,-0.041891903830872934,0.072002003287353,0.27637666999094473,0.08610125564525789,0.4004179965051602,0.5374722559254508,0.10964838921224462
478000000,257,478000000,,base_to_link1,link1_to_link2,link2_to_link3,-1.0408765800265085,-0.06103264815979692,-0.04180695619884567,0.07041825377931131,0.27262742800719886,0.08494761970907116,0.40129562538731456,0.538467953292896,0.10994355030044645
479000000,258,479000000,,base_to_link1,link1_to_link2,link2_to_link3,-1.0408077315979787,-0.06076375952509849,-0.04172315950888095,0.06884842884410618,0.26888886878452833,0.08379667778029115,0.40217519235755894,0.5394909228048306,0.11024771004951361
480000000,259,480000000,,base_to_link1,link1_to_link2,link2_to_link3,-1.0407404390469628,-0.060498598312395124,-0.04164051091352494,0.06729255132758281,0.2651614461570775,0.08264858330829583,0.403056533005417,0.5405405950965125,0.1105606852124108
481000000,260,481000000,,base_to_link1,link1_to_link2,link2_to_link3,-1.0406746884054874,-0.06023715293986065,-0.0415590074147012,0.06575064178418367,0.2614456053090362,0.08150348691168169,0.40393948500919485,0.5416164049645378,0.11088229386756687
482000000,261,482000000,,base_to_link1,link1_to_link2,link2_to_link3,-1.0406104656872905,-0.059979411389074144,-0.04147864586653682,0.06422271850449696,0.2577417828350428,0.0803615363921153,0.4048238881349331,0.5427177914080872,0.1112123554115918
483000000,262,483000000,,base_to_link1,link1_to_link2,link2_to_link3,-1.0405477568900485,-0.05972536121355265,-0.04139942297814336,0.06270879754646838,0.25405040679598667,0.07922287675979889,0.4057095842315306,0.5438441976481911,0.11155069058931488
484000000,263,484000000,,base_to_link1,link1_to_link2,link2_to_link3,-1.04048654799759,-0.0594749895472253,-0.04132133531640658,0.06120889276165324,0.25037189678100497,0.07808765024553316,0.40659641721393136,0.5449950711579898,0.11189712147629649
485000000,264,485000000,,base_to_link1,link1_to_link2,link2_to_link3,-1.040426824982064,-0.059228283112846114,-0.04124437930872915,0.059723015826596004,0.24670666396406618,0.07695599632726091,0.4074842330728323,0.5461698636888546,0.11225147151560755
486000000,265,486000000,,base_to_link1,link1_to_link2,link2_to_link3,-1.0403685738060942,-0.05898522823034735,-0.04116855124578045,0.05825117626848289,0.24305511116670794,0.07582805174269153,0.40837287985017845,0.5473680312932316,0.11261356549818302
487000000,266,487000000,,base_to_link1,link1_to_link2,link2_to_link3,-1.0403117804248936,-0.05874581082513686,-0.041093847284202845,0.056793381496578726,0.2394176329160015,0.07470395051569534,0.40926220764649024,0.5485890343486677,0.11298322959742535
488000000,267,488000000,,base_to_link1,link1_to_link2,link2_to_link3,-1.0402564307883608,-0.05851001643632259,-0.041020263449317085,0.055349636827275076,0.23579461550809466,0.07358382396999458,0.41015206860382847,0.549832337584828,0.1133602913527465
489000000,268,489000000,,base_to_link1,link1_to_link2,link2_to_link3,-1.0402025108431392,-0.05827783022489097,-0.04094779563779216,0.05391994551531856,0.232186437066773,0.07246780075475986,0.4110423169063182,0.5510974100929111,0.1137445796957337
490000000,269,490000000,,base_to_link1,link1_to_link2,link2_to_link3,-1.0401500065346498,-0.0580492369818133,-0.040876439620309846,0.0525043087794204,0.22859346760812016,0.0713560068595285,0.41193280876521854,0.5523837253612474,0.11413592494132097
491000000,270,491000000,,base_to_link1,link1_to_link2,link2_to_link3,-1.040098903809108,-0.05782422113609087,-0.04080619104419725,0.05110272583072043,0.22501606910054356,0.0702485656385769,0.4128234024126076,0.55369076128442,0.11453415880910534
492000000,271,492000000,,base_to_link1,link1_to_link2,link2_to_link3,-1.0400491886154937,-0.05760276676274234,-0.04073704543604162,0.04971519390149958,0.22145459552787833,0.06914559782992585,0.41371395810466893,0.5550180001824323,0.11493911441769811
493000000,272,493000000,,base_to_link1,link1_to_link2,link2_to_link3,-1.0400008469075086,-0.05738485759072187,-0.040668998204292706,0.048341708270692,0.21790939295332482,0.06804722157388782,0.41460433809610286,0.55636492882285,0.11535062629310922
494000000,273,494000000,,base_to_link1,link1_to_link2,link2_to_link3,-1.0399538646454989,-0.05717047701078126,-0.04060204464182959,0.04698226229331695,0.21438079958113673,0.06695355243764878,0.41549440664548243,0.5577310384307044,0.11576853038233637
495000000,274,495000000,,base_to_link1,link1_to_link2,link2_to_link3,-1.039908227798354,-0.056959608083262836,-0.040536179928523985,0.045636847426231614,0.21086914582171967,0.06586470343124379,0.41638403000073154,0.5591158247111583,0.11619266404350626
496000000,275,496000000,,base_to_link1,link1_to_link2,link2_to_link3,-1.0398639223453783,-0.05675223354582748,-0.04047139913376796,0.04430545325561939,0.20737475435463615,0.06478078503233298,0.41727307639413347,0.5605187878581575,0.11662286606795469
497000000,276,497000000,,base_to_link1,link1_to_link2,link2_to_link3,-1.039820934278132,-0.05654833582112584,-0.04040769721899107,0.042988067524751365,0.20389794019275959,0.06370190520521801,0.4181614160335112,0.5619394325668736,0.117058976669977
498000000,277,498000000,,base_to_link1,link1_to_link2,link2_to_link3,-1.0397792496022493,-0.0563478970243958,-0.040345069040149895,0.041684676159579895,0.20043901074734818,0.06262816942233218,0.41904892109044134,0.5633772680535731,0.11750083750134088
499000000,278,499000000,,base_to_link1,link1_to_link2,link2_to_link3,-1.0397388543392267,-0.056150898971003116,-0.04028350935019809,0.04039526329631699,0.19699826589199051,0.06155968068530468,0.41993546569534246,0.5648318080578729,0.1179482916486485
500000000,279,500000000,,base_to_link1,link1_to_link2,link2_to_link3,-1.0396997345281935,-0.055957323183911,-0.040223012801539504,0.03911981130725519,0.1935759980290827,0.060496539544726724,0.4208209259251561,0.5663025708613034,0.11840118363849683
501000000,280,501000000,,base_to_link1,link1_to_link2,link2_to_link3,-1.0396618762276368,-0.05576715090109019,-0.04016357394845382,0.037858300828254546,0.1901724921531615,0.05943884412389672,0.42170517980418154,0.5677890792909501,0.1188593594451337
502000000,281,502000000,,base_to_link1,link1_to_link2,link2_to_link3,-1.039625265517122,-0.05558036308285441,-0.040105187249508845,0.03661071078343933,0.18678802591824223,0.058386690137387814,0.4225881072751392,0.5692908607340463,0.11932266648718048
503000000,282,503000000,,base_to_link1,link1_to_link2,link2_to_link3,-1.0395898884989778,-0.05539694041914611,-0.040047847069938136,0.035377018412974755,0.18342286970117627,0.05734017091634741,0.4234695902119334,0.5708074471367208,0.11979095363843228
504000000,283,504000000,,base_to_link1,link1_to_link2,link2_to_link3,-1.039555731299946,-0.055216863336735145,-0.039991547684012474,0.034157199298325475,0.180077286670201,0.05629937742439162,0.4243495124009744,0.5723383750271172,0.12026407121699556
505000000,284,505000000,,base_to_link1,link1_to_link2,link2_to_link3,-1.039522780072823,-0.055040112006372155,-0.03993628327738108,0.032951227387657954,0.1767515328491478,0.05526439828344454,0.42522775952304137,0.573883185500339,0.12074187100278522
506000000,285,506000000,,base_to_link1,link1_to_link2,link2_to_link3,-1.0394910209980637,-0.05486666634986026,-0.03988204794939332,0.03175907502240971,0.17344585718404365,0.0542353197935318,0.4261042191608144,0.575441424244687,0.12122420623073893
507000000,286,507000000,,base_to_link1,link1_to_link2,link2_to_link3,-1.0394604402853629,-0.054696506047068105,-0.039828835715397304,0.03058071296234883,0.17016050160961413,0.0532122259549542,0.4269787807767145,0.5770126415306631,0.1217109315944942
508000000,287,508000000,,base_to_link1,link1_to_link2,link2_to_link3,-1.0394310241752107,-0.054529610542877194,-0.039776640509020744,0.02941611041164457,0.16689570111584923,0.05219519848909715,0.42785133570830247,0.5785963922224813,0.12220190324628177
509000000,288,509000000,,base_to_link1,link1_to_link2,link2_to_link3,-1.039402758940426,-0.0543659590540555,-0.039725456184424246,0.02826523504324309,0.16365168381401712,0.0511843168607935,0.42872177715540083,0.5801922357818157,0.1226969788019705
510000000,289,510000000,,base_to_link1,link1_to_link2,link2_to_link3,-1.0393756308876574,-0.054205530576075134,-0.03967527651854308,0.02712805302517299,0.16042867100435984,0.05017965829900542,0.42959000017500415,0.581799736262818,0.12319601733606689
511000000,290,511000000,,base_to_link1,link1_to_link2,link2_to_link3,-1.0393496263588675,-0.054048303889850935,-0.03962609521329252,0.02600452904447825,0.1572268772416087,0.04918129782061023,0.43045590166342684,0.5834184623243388,0.12369887939258639
512000000,291,512000000,,base_to_link1,link1_to_link2,link2_to_link3,-1.0393247317327878,-0.05389425756842314,-0.03957790589776522,0.024894626333164718,0.15404651040319559,0.048189308249415086,0.4313193803542692,0.5850479872182657,0.12420542697069159
513000000,292,513000000,,base_to_link1,link1_to_link2,link2_to_link3,-1.0393009334263468,-0.05374336998356721,-0.03953070213039922,0.023798306692485845,0.1508877717552682,0.04720376023971562,0.43218033680365586,0.5866878888003946,0.1247155235386721
514000000,293,514000000,,base_to_link1,link1_to_link2,link2_to_link3,-1.0392782178960793,-0.053595619312333476,-0.03948447740112737,0.02271553051730721,0.14775085602009205,0.046224722297273396,0.4330386733778724,0.5883377495236974,0.12522903402631513
515000000,294,515000000,,base_to_link1,link1_to_link2,link2_to_link3,-1.0392565716395055,-0.0534509835435335,-0.039439225133500955,0.02164625682190561,0.14463595144264405,0.04525226080244199,0.4338942942488089,0.5899971564335527,0.12574582482774765
516000000,295,516000000,,base_to_link1,link1_to_link2,link2_to_link3,-1.03923598119649,-0.053309440484139436,-0.03939493868679822,0.020590443262297663,0.14154323985874118,0.04428644002882129,0.4347471053766583,0.591665701179318,0.12626576379691556
517000000,296,517000000,,base_to_link1,link1_to_link2,link2_to_link3,-1.0392164331505729,-0.05317096776563446,-0.03935161135810539,0.01954804616242891,0.13847289676066848,0.04332732216890228,0.43559701450486266,0.5933429799912826,0.12678872025357002
518000000,297,518000000,,base_to_link1,link1_to_link2,link2_to_link3,-1.0391979141302787,-0.05303554285028511,-0.03930923638437811,0.018519020537441346,0.1354250913655267,0.04237496735325447,0.4364439311441082,0.5950285936953215,0.12731456497654392
519000000,298,519000000,,base_to_link1,link1_to_link2,link2_to_link3,-1.0391804108104026,-0.052903143037349665,-0.039267806944478956,0.017503320117193095,0.1323999866819083,0.04142943367318866,0.4372877665641006,0.5967221476974593,0.1278431702048266
520000000,299,520000000,,base_to_link1,link1_to_link2,link2_to_link3,-1.0391639099132721,-0.052773745469220756,-0.0392273161611989,0.01650089737102504,0.12939773957682354,0.04049077720182798,0.43812843378333355,0.5984232519820054,0.12837440963395785
521000000,300,521000000,,base_to_link1,link1_to_link2,link2_to_link3,-1.0391483982099787,-0.05264732713750142,-0.039187757103251286,0.015511703531317301,0.12641850084288409,0.039559052017331175,0.4389658475577285,0.6001315211072544,0.1289081584202556
522000000,301,522000000,,base_to_link1,link1_to_link2,link2_to_link3,-1.0391338625215987,-0.05252386488900651,-0.039149122787243584,0.014535688615932636,0.12346241526551001,0.03863431022330306,0.4397999243618589,0.6018465741996337,0.12944429317322204
523000000,302,523000000,,base_to_link1,link1_to_link2,link2_to_link3,-1.0391202897203806,-0.05240333543170905,-0.03911140617963582,0.013572801453358735,0.12052962168983562,0.037716601970756936,0.4406305823913925,0.6035680349391104,0.12998269195305667
524000000,303,524000000,,base_to_link1,link1_to_link2,link2_to_link3,-1.0391076667309083,-0.05228571534061288,-0.039074600198660825,0.012622989705125445,0.11762025308692961,0.03680597548150477,0.44145774154121575,0.6052955315635877,0.13052323427691803
525000000,304,525000000,,base_to_link1,link1_to_link2,link2_to_link3,-1.0390959805312514,-0.05217098106355422,-0.039038697716248016,0.011686199887635718,0.11473443662282448,0.03590247706493868,0.44228132339219073,0.6070286968539129,0.13106580109993438
526000000,305,526000000,,base_to_link1,link1_to_link2,link2_to_link3,-1.0390852181540833,-0.05205910892694732,-0.039003691559894804,0.01076237739839643,0.11187229372201543,0.03500615114773076,0.4431012512111199,0.6087671681208384,0.13161027483799437
527000000,306,527000000,,base_to_link1,link1_to_link2,link2_to_link3,-1.0390753666877748,-0.05195007514145633,-0.03896957451454508,0.009851466535632014,0.10903394013723271,0.03411704028711504,0.4439174499281684,0.6105105872065231,0.13215653933405846
528000000,307,528000000,,base_to_link1,link1_to_link2,link2_to_link3,-1.039066413277478,-0.051843855807597095,-0.03893633932442686,0.008953410522469769,0.10621948601474214,0.03323518519792118,0.444729846124714,0.6122586004675323,0.13270447988404932
529000000,308,529000000,,base_to_link1,link1_to_link2,link2_to_link3,-1.0390583451261728,-0.051740426921284666,-0.03890397869487394,0.008068151529855324,0.10342903595995631,0.03236062477312843,0.44553836803352453,0.6140108587606896,0.13325398321437198
530000000,309,530000000,,base_to_link1,link1_to_link2,link2_to_link3,-1.0390511494956964,-0.05163976437929829,-0.038872485294130676,0.007195630698155574,0.10066268910599932,0.03149339610276303,0.4463429455119172,0.615767017444373,0.13380493748414324
531000000,310,531000000,,base_to_link1,link1_to_link2,link2_to_link3,-1.0390448137077577,-0.051541843984695745,-0.038841851755130996,0.006335788159555881,0.09792053917810767,0.03063353449881033,0.44714351003607433,0.6175267363505643,0.13435723228636398
532000000,311,532000000,,base_to_link1,link1_to_link2,link2_to_link3,-1.0390393251449161,-0.051446641452151276,-0.038812070677251675,0.005488563060982391,0.09520267456019584,0.02978107351567527,0.4479399946943019,0.6192896797883662,0.13491075863995228
533000000,312,533000000,,base_to_link1,link1_to_link2,link2_to_link3,-1.0390346712515477,-0.0513541324132305,-0.038783134628055826,0.004653893584951372,0.09250917836180744,0.028936044969366484,0.44873233416307556,0.6210555165209986,0.13546540898151882
534000000,313,534000000,,base_to_link1,link1_to_link2,link2_to_link3,-1.0390308395347905,-0.051264292421600466,-0.03875503614500353,0.003831716972019905,0.08984012848294828,0.02809847896209916,0.4495204647024842,0.6228239197554863,0.1360210771730319
535000000,314,535000000,,base_to_link1,link1_to_link2,link2_to_link3,-1.0390278175654615,-0.051177096958172186,-0.03872776773714559,0.0030219695429104265,0.08719559767970556,0.027268403901806418,0.45030432414614907,0.6245945671299236,0.13657765848606118
536000000,315,536000000,,base_to_link1,link1_to_link2,link2_to_link3,-1.0390255929789536,-0.051092521436181926,-0.03870132188680042,0.002224586719170634,0.08457565363072252,0.026445846523004274,0.45108385188108,0.626367140697397,0.13713504960183975
537000000,316,537000000,,base_to_link1,link1_to_link2,link2_to_link3,-1.0390241534761184,-0.051010541206198745,-0.03867569105120161,0.0014395030445204147,0.08198035900190052,0.02563083190913447,0.45185898883710607,0.6281413269155145,0.13769314861115767
538000000,317,538000000,,base_to_link1,link1_to_link2,link2_to_link3,-1.039023486824119,-0.050931131561074316,-0.038650867664130395,0.000666652207503948,0.07940977151132896,0.024823383513379843,0.4526296774814931,0.629916816622762,0.1382518550015277
539000000,318,539000000,,base_to_link1,link1_to_link2,link2_to_link3,-1.039023580857263,-0.05085426774082791,-0.038626844137522376,-9.403293913090954e-05,0.07686394399480338,0.024023523179642126,0.4533958617972722,0.6316933050302698,0.13881106965841106
540000000,319,540000000,,base_to_link1,link1_to_link2,link2_to_link3,-1.0390244234778248,-0.05077992493745853,-0.0386036128630618,-0.0008426203568829692,0.0743429244708025,0.023231271162125366,0.4541574872720311,0.6334704917058254,0.13937069485552733
541000000,320,541000000,,base_to_link1,link1_to_link2,link2_to_link3,-1.0390260026568257,-0.05070807829970558,-0.03858116621374119,-0.0015791787994229277,0.07184675620347963,0.022446646150292307,0.45491450089548024,0.6352480805491645,0.13993063425836283
542000000,321,542000000,,base_to_link1,link1_to_link2,link2_to_link3,-1.0390283064348225,-0.05063870293773043,-0.03855949654541391,-0.0023037777949561442,0.06937547776982432,0.021669665283953338,0.4556668511246187,0.637025779788063,0.140490792905128
543000000,322,543000000,,base_to_link1,link1_to_link2,link2_to_link3,-1.0390313229226429,-0.05057177392774381,-0.03853859619831734,-0.0030164876224876166,0.0669291231210862,0.02090034417909066,0.45641448790050276,0.6388033019461048,0.1410510772151774
544000000,323,544000000,,base_to_link1,link1_to_link2,link2_to_link3,-1.0390350403021316,-0.050507266316567545,-0.03851845749857752,-0.0037173792940724116,0.06450772164831849,0.020138696945897122,0.45715736260230955,0.6405803638347773,0.14161139497493203
545000000,324,545000000,,base_to_link1,link1_to_link2,link2_to_link3,-1.039039446826859,-0.05044515512613046,-0.03849907275969766,-0.004406524532994007,0.06211129824568028,0.019384736209722142,0.4578954280654557,0.642356686533363,0.14217165533427334
546000000,325,546000000,,base_to_link1,link1_to_link2,link2_to_link3,-1.0390445308228067,-0.0503854153579022,-0.03848043428401571,-0.005083995753577548,0.05973987337301633,0.018638473133895397,0.4586286385513816,0.6441319953681734,0.14273176880544192
547000000,326,547000000,,base_to_link1,link1_to_link2,link2_to_link3,-1.0390502806890396,-0.05032802199726394,-0.038462534364152035,-0.005749866043246864,0.05739346312042511,0.01789991743649587,0.45935694973131547,0.6459060198947153,0.1432916472465262
548000000,327,548000000,,base_to_link1,link1_to_link2,link2_to_link3,-1.0390566848983696,-0.0502729500178134,-0.03844536528443143,-0.006404209141962483,0.055072079271196006,0.017169077412622337,0.4600803186787772,0.6476784938783364,0.1438512038661699
549000000,328,549000000,,base_to_link1,link1_to_link2,link2_to_link3,-1.0390637319979774,-0.05022017438561299,-0.038428919322286426,-0.007047099421225307,0.05277572936301711,0.016445959955771514,0.46079870386911637,0.6494491552715509,0.14441035321203444
550000000,329,550000000,,base_to_link1,link1_to_link2,link2_to_link3,-1.0390714106100294,-0.05016967006336959,-0.038413188749637506,-0.007678611866557068,0.05050441675139579,0.015730570576874575,0.46151206514309706,0.6512177461996771,0.14496901116618055
551000000,330,551000000,,base_to_link1,link1_to_link2,link2_to_link3,-1.0390797094322703,-0.050121412014556554,-0.03839816583425648,-0.008298822057618026,0.048258140672252564,0.015022913423866448,0.4622203637077327,0.6529840129342457,0.14552709493577787
552000000,331,552000000,,base_to_link1,link1_to_link2,link2_to_link3,-1.0390886172385994,-0.0500753752074683,-0.03838384284111207,-0.008907806149672215,0.04603689630336766,0.014322991302141062,0.46292356211912633,0.6547477058764883,0.14608452304986308
553000000,332,553000000,,base_to_link1,link1_to_link2,link2_to_link3,-1.0390981228796328,-0.050031534619221496,-0.03837021203368618,-0.009505640853611438,0.04384067482527554,0.013630805696470003,0.4636216242704627,0.6565085795303816,0.14664121535503227
554000000,333,554000000,,base_to_link1,link1_to_link2,link2_to_link3,-1.0391082152832283,-0.04998986523968796,-0.038357265675281305,-0.010092403417831996,0.04166946348338152,0.01294635678804499,0.46431451538520463,0.6582663924893684,0.14719709299929384
555000000,334,555000000,,base_to_link1,link1_to_link2,link2_to_link3,-1.0391188834550125,-0.04995034207536797,-0.03834499603029862,-0.010668171610442001,0.03952324564932094,0.012269643475694966,0.46500220198325337,0.6600209074072971,0.1477520784362607
556000000,335,556000000,,base_to_link1,link1_to_link2,link2_to_link3,-1.0391301164788853,-0.04991294015320591,-0.03833339536550717,-0.011233023700160468,0.03740200088106321,0.011600663394457367,0.46568465188977726,0.6617718909776471,0.14830609540862127
557000000,336,557000000,,base_to_link1,link1_to_link2,link2_to_link3,-1.0391419035174945,-0.049877634524342795,-0.038322455951280254,-0.011787038437106658,0.03530570498286628,0.010939412937960719,0.4663618342171638,0.6635191139139529,0.14885906895194978
558000000,337,558000000,,base_to_link1,link1_to_link2,link2_to_link3,-1.039154233812699,-0.04984440026780668,-0.03831217006282284,-0.012330295036912567,0.03323433006669757,0.010285887274076165,0.4670337193395646,0.6652623509242694,0.14941092537420708
559000000,338,559000000,,base_to_link1,link1_to_link2,link2_to_link3,-1.039167096686029,-0.049813212494150605,-0.03830252998137951,-0.01286287316196306,0.031187844611432286,0.009640080366288079,0.4677002788868734,0.6670013806859032,0.14996159225913352
560000000,339,560000000,,base_to_link1,link1_to_link2,link2_to_link3,-1.0391804815390948,-0.049784046349022226,-0.0382935279954113,-0.01338485290146357,0.02916621352102376,0.0090019849950312,0.4683614857457741,0.6687359858293895,0.15051099845878824
561000000,340,561000000,,base_to_link1,link1_to_link2,link2_to_link3,-1.0391943778540167,-0.04975687701668008,-0.038285156401768994,-0.013896314758453621,0.027169398186491757,0.008371592771741366,0.46901731401231217,0.6704659529057988,0.15105907407423125
562000000,341,562000000,,base_to_link1,link1_to_link2,link2_to_link3,-1.0392087751938046,-0.04973167972344772,-0.03827740750683706,-0.014397339628059534,0.0251973565419358,0.007748894162810192,0.4696677390175097,0.6721910723686086,0.15160575046370361
563000000,342,563000000,,base_to_link1,link1_to_link2,link2_to_link3,-1.0392236632027458,-0.049708429741115445,-0.038270273627662554,-0.01488800878300447,0.02325004312490851,0.007133878505984997,0.47031273728142864,0.6739111385460728,0.15215096022475727
564000000,343,564000000,,base_to_link1,link1_to_link2,link2_to_link3,-1.0392390316067583,-0.04968710239027185,-0.038263747093061795,-0.015368403855048639,0.021327409133471927,0.006526534030004499,0.4709522865241489,0.6756259496228356,0.15269463719044474
565000000,344,565000000,,base_to_link1,link1_to_link2,link2_to_link3,-1.0392548702137319,-0.049667673043592764,-0.038257820244716356,-0.01583860681890143,0.019429402484942047,0.00592684787267855,0.47158636563555234,0.6773353076030819,0.15323671641818137
566000000,345,566000000,,base_to_link1,link1_to_link2,link2_to_link3,-1.03927116891386,-0.04965011712905998,-0.03825248543823889,-0.016298699975770447,0.01755596787234808,0.005334806100944268,0.47221495466629904,0.6790390183007933,0.15377713419004735
567000000,346,567000000,,base_to_link1,link1_to_link2,link2_to_link3,-1.0392879176799479,-0.049634410133128526,-0.03824773504422918,-0.01674876593601973,0.01570704682265469,0.004750393727738278,0.47283803482226716,0.6807368913017697,0.15431582799324772
568000000,347,568000000,,base_to_link1,link1_to_link2,link2_to_link3,-1.0393051065676993,-0.04962052760383795,-0.03824356144930974,-0.017188887602850433,0.013882577752516707,0.004173594731508825,0.47345558844275715,0.6824287399437878,0.15485273652090292
569000000,348,569000000,,base_to_link1,link1_to_link2,link2_to_link3,-1.0393227257160031,-0.049608445153865866,-0.03823995705713923,-0.017619148157417806,0.012082496025633804,0.0036043920741114753,0.47406759898382944,0.6841143812917583,0.1553877996619768
570000000,349,570000000,,base_to_link1,link1_to_link2,link2_to_link3,-1.0393407653471893,-0.04959813846352201,-0.038236914289415225,-0.018039631041268357,0.010306734008419709,0.003042767718249087,0.4746740510193881,0.6857936361105299,0.15592095848920628
571000000,350,571000000,,base_to_link1,link1_to_link2,link2_to_link3,-1.0393592157672735,-0.04958958328369523,-0.03823442558685208,-0.018450419941062984,0.008555221125161666,0.0024887026477113626,0.4752749302135406,0.6874663288353222,0.15645215525847078
572000000,351,572000000,,base_to_link1,link1_to_link2,link2_to_link3,-1.0393780673661865,-0.049582755438733805,-0.03823248341014107,-0.0188515987728977,0.0068278839142973495,0.0019421768832529104,0.47587022331239126,0.6891322875541217,0.15698133339370202
573000000,352,573000000,,base_to_link1,link1_to_link2,link2_to_link3,-1.0393973106179946,-0.049577630829279684,-0.03823108024090072,-0.019243251667807285,0.0051246460831883564,0.001403169500307242,0.4764599181303453,0.6907913439698721,0.15750843747872167
574000000,353,574000000,,base_to_link1,link1_to_link2,link2_to_link3,-1.0394169360810839,-0.049574185435047546,-0.03823020858259696,-0.019625462953769844,0.0034454285616442857,0.0008716586494908894,0.4770440035434298,0.6924433333826308,0.15803341325697495
575000000,354,575000000,,base_to_link1,link1_to_link2,link2_to_link3,-1.0394369343983634,-0.049572395317540874,-0.038229860961457085,-0.019998317144279746,0.001790149558488108,0.00034762156943269414,0.47762246945561415,0.6940880946622929,0.15855620761053402
576000000,355,576000000,,base_to_link1,link1_to_link2,link2_to_link3,-1.0394572962974173,-0.04957223662272803,-0.038230029927361464,-0.02036189891979027,0.00015872461276399792,-0.0001689653909940465,0.47819530681859845,0.6957254702126914,0.1590767685630201
577000000,356,577000000,,base_to_link1,link1_to_link2,link2_to_link3,-1.0394780125906635,-0.04957368558365083,-0.03823070805471129,-0.020716293115154976,-0.0014489333515560901,-0.0006781267575583919,0.4787625075836033,0.6973553059583892,0.1595950452663164
578000000,357,578000000,,base_to_link1,link1_to_link2,link2_to_link3,-1.039499074175497,-0.04957671852298873,-0.038231887943303455,-0.021061584705081522,-0.003032913971076704,-0.0011798879157341054,0.4793240647082797,0.6989774513032643,0.16011098798526469
579000000,358,579000000,,base_to_link1,link1_to_link2,link2_to_link3,-1.0395204720344111,-0.04958131185557235,-0.038233562219141426,-0.021397858787434394,-0.004593309394572772,-0.0016742750847788595,0.4798799721439373,0.7005917591117417,0.16062454811351934
580000000,359,580000000,,base_to_link1,link1_to_link2,link2_to_link3,-1.0395421972351073,-0.04958744209083221,-0.0382357235352897,-0.02172520057185779,-0.0061302142243810425,-0.002161315315769929,0.4804302248136594,0.7021980856833032,0.16113567811770757
581000000,360,581000000,,base_to_link1,link1_to_link2,link2_to_link3,-1.039564240930595,-0.04959508583521277,-0.03823836457265717,-0.0220436953633272,-0.007643725470759759,-0.0026410364586660585,0.48097481860274627,0.7037962907121376,0.16164433158949443
582000000,361,582000000,,base_to_link1,link1_to_link2,link2_to_link3,-1.039586594359264,-0.049604219794517235,-0.038241478040800025,-0.022353428549739995,-0.009133942495667034,-0.003113467157605831,0.48151375034905186,0.7053862372766417,0.16215046318236226
583000000,362,583000000,,base_to_link1,link1_to_link2,link2_to_link3,-1.0396092488449717,-0.04961482077621682,-0.03824505667868383,-0.022654485587933527,-0.010600966964384654,-0.003578636827269624,0.4820470178170666,0.7069677917935913,0.16265402863917977
584000000,363,584000000,,base_to_link1,link1_to_link2,link2_to_link3,-1.0396321957970773,-0.049626865691699606,-0.038249093255458,-0.022946951988701753,-0.012044902793018187,-0.004036575641408514,0.48257461971299875,0.7085408240057056,0.1631549847589664
585000000,364,585000000,,base_to_link1,link1_to_link2,link2_to_link3,-1.0396554267104978,-0.04964033155846792,-0.0382535805711699,-0.023230913305131256,-0.013465856100709347,-0.004487314509133046,0.4830965556318212,0.7101052069437408,0.1636532894170717
586000000,365,586000000,,base_to_link1,link1_to_link2,link2_to_link3,-1.03967893316573,-0.049655195502303684,-0.03825851145751269,-0.02350645511887176,-0.014863935155897371,-0.0049308850691627895,0.4836128260809325,0.7116608168969485,0.1641489015119202
587000000,366,587000000,,base_to_link1,link1_to_link2,link2_to_link3,-1.0397027068288693,-0.049671434759346766,-0.038263878778521665,-0.02377366302703485,-0.016239250329530806,-0.005367319665540226,0.4841234324448429,0.7132075334027554,0.1646417810062406
588000000,367,588000000,,base_to_link1,link1_to_link2,link2_to_link3,-1.0397267394516057,-0.049689026678171544,-0.03826967543126525,-0.024032622627664705,-0.017591914046472142,-0.005796651332556444,0.4846283769835935,0.7147452391805054,0.16513188888251484
589000000,368,589000000,,base_to_link1,link1_to_link2,link2_to_link3,-1.0397510228712257,-0.04970794872177642,-0.03827589434652534,-0.02428341951076303,-0.018922040733378716,-0.00621891378437802,0.4851276628078338,0.7162738201504482,0.16561918714455892
590000000,369,590000000,,base_to_link1,link1_to_link2,link2_to_link3,-1.039775549010571,-0.049728178469544915,-0.03828252848946345,-0.024526139241826932,-0.020229746774060406,-0.006634141393568053,0.4856212938877391,0.7177931653665937,0.1661036388136683
591000000,370,591000000,,base_to_link1,link1_to_link2,link2_to_link3,-1.0398003098780286,-0.049749693619146385,-0.03828957086024598,-0.02476086735213755,-0.021515150460204528,-0.007042369175371991,0.4861092750063989,0.7193031670079009,0.16658520792106835
592000000,371,592000000,,base_to_link1,link1_to_link2,link2_to_link3,-1.0398252975674538,-0.049772471988413614,-0.03829701449469436,-0.024987689323989856,-0.022778371942921732,-0.007443632778411043,0.48659161179347876,0.7208037203368889,0.16706385947331093
593000000,372,593000000,,base_to_link1,link1_to_link2,link2_to_link3,-1.039850504258137,-0.04979649151712984,-0.03830485246489257,-0.02520669058294688,-0.024019533185938698,-0.007837968464949,0.487068310655161,0.7222947236953203,0.16753955948364485
594000000,373,594000000,,base_to_link1,link1_to_link2,link2_to_link3,-1.0398759222147156,-0.04982173026881753,-0.03831307787977689,-0.02541795648040968,-0.025238757921622206,-0.00822541309211898,0.48753937882000997,0.7237760784314773,0.16801227493545845
595000000,374,595000000,,base_to_link1,link1_to_link2,link2_to_link3,-1.0399015437870993,-0.049848166432450824,-0.03832168388573809,-0.025621572286804006,-0.026436171599860676,-0.008606004106650363,0.4880048242812407,0.7252476889198256,0.16848197377041352
596000000,375,596000000,,base_to_link1,link1_to_link2,link2_to_link3,-1.0399273614103706,-0.04987577832412882,-0.03833066366716853,-0.02581762317674434,-0.02761190134756754,-0.00897977951911768,0.4884646558101835,0.7267094625017556,0.16894862490690166
597000000,376,597000000,,base_to_link1,link1_to_link2,link2_to_link3,-1.0399533676046833,-0.049904544388700955,-0.03834001044703772,-0.02600619422072839,-0.028766075917415524,-0.009346777900251992,0.4889188829304203,0.7281613094632355,0.1694121981904484
598000000,377,598000000,,base_to_link1,link1_to_link2,link2_to_link3,-1.0399795549751438,-0.04993444320136042,-0.03834971748741811,-0.02618737037024109,-0.029898825648875058,-0.009707038354773417,0.4893675159149957,0.7296031430031036,0.16987266442789029
599000000,378,599000000,,base_to_link1,link1_to_link2,link2_to_link3,-1.0400059162116833,-0.049965453469171806,-0.038359778090012675,-0.026361236449768274,-0.031010282419390727,-0.010060600515497946,0.4898105657674634,0.7310348792170274,0.17032999534289495
600000000,379,600000000,,base_to_link1,link1_to_link2,link2_to_link3,-1.040032444088915,-0.04999755403258099,-0.0383701855966736,-0.02652787714493001,-0.03210057960186676,-0.010407504525834395,0.4902480442117252,0.7324564370470554,0.17078416358301318
601000000,380,601000000,,base_to_link1,link1_to_link2,link2_to_link3,-1.0400591314659913,-0.050030723866852256,-0.03838093338988546,-0.02668737699160077,-0.03316985202032663,-0.010747791024719566,0.4906799636763992,0.7338677382789527,0.17123514271598417
602000000,381,602000000,,base_to_link1,link1_to_link2,link2_to_link3,-1.040085971286441,-0.05006494208348222,-0.03839201489325905,-0.02683982036609513,-0.03421823590666688,-0.011081501135791975,0.4911063372916047,0.7352687074837405,0.17168290719904
603000000,382,603000000,,base_to_link1,link1_to_link2,link2_to_link3,-1.0401129565779978,-0.05010018793156412,-0.038403423571996775,-0.026985291473767995,-0.03524586885846519,-0.011408676449343978,0.49152717886958186,0.7366592720087439,0.17212743239450212
604000000,383,604000000,,base_to_link1,link1_to_link2,link2_to_link3,-1.0401400804524172,-0.0501364407991165,-0.03841515293334741,-0.02712387433924123,-0.03625288979592287,-0.011729359009983231,0.4919425028923108,0.738039361941496,0.17256869454601365
605000000,384,605000000,,base_to_link1,link1_to_link2,link2_to_link3,-1.0401673361052932,-0.05017368021435509,-0.038427196527037744,-0.027255652797793337,-0.037239438919455095,-0.012043591304237988,0.49235232449902355,0.7394089100874979,0.1730066707724287
606000000,385,606000000,,base_to_link1,link1_to_link2,link2_to_link3,-1.0401947168158525,-0.05021188584692915,-0.03843954794572202,-0.027380710484036168,-0.03820565766745073,-0.012351416249125884,0.49275665948437464,0.7407678519260941,0.17344133904903636
607000000,386,607000000,,base_to_link1,link1_to_link2,link2_to_link3,-1.0402222159467502,-0.05025103750913473,-0.03845220082537093,-0.027499130821180936,-0.03915168867849903,-0.01265287716882766,0.4931555242732877,0.7421161255873088,0.17387267822981833
608000000,387,608000000,,base_to_link1,link1_to_link2,link2_to_link3,-1.0402498269438372,-0.05029111515705509,-0.038465148845690855,-0.02761099701417412,-0.040077675745629315,-0.012948017795002653,0.49354893592068905,0.7434536718408857,0.17430066799094313
609000000,388,609000000,,base_to_link1,link1_to_link2,link2_to_link3,-1.0402775433359484,-0.05033209889168688,-0.03847838573050577,-0.027716392039396107,-0.040983763779405366,-0.013236882243505728,0.49393691208075907,0.7447804340348618,0.17472528886515626
610000000,389,610000000,,base_to_link1,link1_to_link2,link2_to_link3,-1.040305358734651,-0.05037396896001489,-0.038491905248121405,-0.027815398633909843,-0.04187009876745965,-0.013519515004211766,0.4943194710261345,0.7460963580926183,0.17514652220829596
611000000,390,611000000,,base_to_link1,link1_to_link2,link2_to_link3,-1.0403332668340095,-0.050416705756040514,-0.038505701211712484,-0.0279080992895074,-0.04273682773217008,-0.013795960933982304,0.4946966316045298,0.7474013924721135,0.17556435018517114
612000000,391,612000000,,base_to_link1,link1_to_link2,link2_to_link3,-1.0403612614103164,-0.050460289821797844,-0.03851976747963892,-0.02799457623927773,-0.043584098697664185,-0.014066265229374958,0.49506841325415607,0.7486954881299823,0.17597875579652644
613000000,392,613000000,,base_to_link1,link1_to_link2,link2_to_link3,-1.0403893363218355,-0.05050470184829159,-0.0385340979558082,-0.02807491145491736,-0.044412060642938594,-0.014330473433912451,0.49543483596549365,0.7499785985192631,0.17638972281114995
614000000,393,614000000,,base_to_link1,link1_to_link2,link2_to_link3,-1.0404174855085326,-0.05054992267643321,-0.038548686589991554,-0.028149186633425017,-0.04522086347036874,-0.014588631408923532,0.49579592029294517,0.7512506795206164,0.17679723581568219
615000000,394,615000000,,base_to_link1,link1_to_link2,link2_to_link3,-1.040445702991784,-0.05059593329791845,-0.03856352737813307,-0.028217483189439684,-0.04601065796550096,-0.014840785327330894,0.4961516873379246,0.7525116894499106,0.17720128017159276
616000000,395,616000000,,base_to_link1,link1_to_link2,link2_to_link3,-1.0404739828740919,-0.05064271485607286,-0.03857861436264631,-0.028279882249259897,-0.04678159575891556,-0.015086981662477315,0.49650215872462766,0.7537615890083771,0.1776018420111658
617000000,396,617000000,,base_to_link1,link1_to_link2,link2_to_link3,-1.040502319338792,-0.05069024864666183,-0.03859394163270924,-0.02833646464123324,-0.04753382928939202,-0.015327267176840034,0.49684735660429524,0.7550003412590911,0.177998908228032
618000000,397,618000000,,base_to_link1,link1_to_link2,link2_to_link3,-1.0405307066497365,-0.050738516118661536,-0.03860950332453772,-0.028387310887263248,-0.04826751176834731,-0.015561688906563315,0.49718730364340047,0.7562279115995452,0.17839246647834095
619000000,398,619000000,,base_to_link1,link1_to_link2,link2_to_link3,-1.0405591391509876,-0.050787498874997894,-0.03862529362164491,-0.02843250119622834,-0.04898279714312178,-0.015790294151181328,0.49752202299739423,0.7574442677302784,0.17878250516218053
620000000,399,620000000,,base_to_link1,link1_to_link2,link2_to_link3,-1.0405876112664973,-0.05083717867323578,-0.0386413067550988,-0.028472115456651428,-0.04967984006048195,-0.01601313046395267,0.49785153831651385,0.7586493796302918,0.17916901341195945
621000000,400,621000000,,base_to_link1,link1_to_link2,link2_to_link3,-1.040616117499777,-0.050887537426261176,-0.03865753700375496,-0.02850623322719191,-0.050358795833141894,-0.016230245635937016,0.49817587373015115,0.7598432195142024,0.1795519810932067
622000000,401,622000000,,base_to_link1,link1_to_link2,link2_to_link3,-1.04064465243356,-0.0509385572028922,-0.03867397869449807,-0.02853493373189776,-0.05101982040230902,-0.016441687691173858,0.4984950538328903,0.7610257618319594,0.17993139878202946
623000000,402,623000000,,base_to_link1,link1_to_link2,link2_to_link3,-1.0406732107294587,-0.05099022022849731,-0.03869062620244801,-0.028558295850811898,-0.05166307030651041,-0.01664750486659615,0.4988091036740272,0.7621969832039,0.18030725777641088
624000000,403,624000000,,base_to_link1,link1_to_link2,link2_to_link3,-1.0407017871276238,-0.051042508885531745,-0.03870747395116947,-0.02857639811613506,-0.05228870264323426,-0.016847745610488234,0.49911804874881227,0.763356862434037,0.1806795500627434
625000000,404,625000000,,base_to_link1,link1_to_link2,link2_to_link3,-1.040730376446371,-0.051095405714079334,-0.03872451641287622,-0.028589318700951234,-0.05289687503939765,-0.01704245856482242,0.499421914996816,0.764505380433711,0.18104826832147758
626000000,405,626000000,,base_to_link1,link1_to_link2,link2_to_link3,-1.0407589735818323,-0.05114889341234807,-0.038741748108598095,-0.028597135416315787,-0.053487745616361694,-0.017231692554460123,0.4997207287662242,0.7656425202323369,0.18141340592383592
627000000,406,627000000,,base_to_link1,link1_to_link2,link2_to_link3,-1.0407875735075773,-0.05120295483712667,-0.03875916360837817,-0.028599925703367307,-0.05406147295550131,-0.017415496583613563,0.5000145168352255,0.7667682669361753,0.18177495689617906
628000000,407,628000000,,base_to_link1,link1_to_link2,link2_to_link3,-1.0408161712742459,-0.05125757300421441,-0.03877675753141485,-0.028597766626671624,-0.05461821606908121,-0.017593919814645885,0.5003033063762352,0.7678826076938172,0.18213291595217562
629000000,408,629000000,,base_to_link1,link1_to_link2,link2_to_link3,-1.040844762009156,-0.05131273108881729,-0.03879452454622534,-0.028590734868044487,-0.055158134365838524,-0.017767011566584633,0.5005871249664473,0.7689855316738381,0.18248727843915624
630000000,409,630000000,,base_to_link1,link1_to_link2,link2_to_link3,-1.0408733409159154,-0.0513684124259175,-0.03881245937079836,-0.028578906720953676,-0.05568138761980713,-0.01793482130105966,0.5008660005572629,0.7700770300350079,0.1828380403610641
631000000,410,631000000,,base_to_link1,link1_to_link2,link2_to_link3,-1.0409019032740368,-0.05142460051060915,-0.038830556772698976,-0.02856235808397016,-0.05618813594094965,-0.018097398607756082,0.5011399614739531,0.7711570959033409,0.18318519836932445
632000000,411,632000000,,base_to_link1,link1_to_link2,link2_to_link3,-1.04093044443853,-0.05148127899839139,-0.038848811569221375,-0.028541164456196436,-0.056678539740150295,-0.018254793206980598,0.5014090364171508,0.7722257243417019,0.18352874971593103
633000000,412,633000000,,base_to_link1,link1_to_link2,link2_to_link3,-1.040958959839493,-0.051538431705456134,-0.03886721862748477,-0.028515400929108644,-0.057152759704364356,-0.018407054924313743,0.5016732544338964,0.7732829123101048,0.18386869230293534
634000000,413,634000000,,base_to_link1,link1_to_link2,link2_to_link3,-1.0409874449817096,-0.05159604260891726,-0.038885772864532875,-0.028485142183957313,-0.057610956762399926,-0.01855423369128864,0.5019326449135519,0.7743286586632614,0.18420502462656252
635000000,414,635000000,,base_to_link1,link1_to_link2,link2_to_link3,-1.041015895444227,-0.05165409584703795,-0.03890446924744584,-0.028450462484486,-0.05805329205665037,-0.018696379534215823,0.5021872375890979,0.7753629640942528,0.18453774578175874
636000000,415,636000000,,base_to_link1,link1_to_link2,link2_to_link3,-1.0410443068799307,-0.051712575719401244,-0.03892330279340239,-0.028411435671761288,-0.0584799269156788,-0.018833542558537343,0.5024370625151597,0.7763858311350269,0.18486685547574488
637000000,416,637000000,,base_to_link1,link1_to_link2,link2_to_link3,-1.0410726750151191,-0.051771466687082324,-0.038942268569765126,-0.028368135160023445,-0.05889102282265126,-0.018965772947377425,0.5026821500584155,0.7773972641012605,0.18519235397890021
638000000,417,638000000,,base_to_link1,link1_to_link2,link2_to_link3,-1.0411009956490798,-0.051830753372758664,-0.03896136169414799,-0.02832063393203514,-0.05928674138752853,-0.019093120949672075,0.5029225308951268,0.7783972690958585,0.1855142421487077
639000000,418,639000000,,base_to_link1,link1_to_link2,link2_to_link3,-1.0411292646536374,-0.05189042056082371,-0.03898057733446603,-0.028269004531390866,-0.05966724432212943,-0.019215636866111434,0.5031582360068931,0.7793858539478826,0.18583252141266549
640000000,419,640000000,,base_to_link1,link1_to_link2,link2_to_link3,-1.0411574779727246,-0.05195045319744729,-0.038999910708978014,-0.028213319061495157,-0.06003269340879371,-0.019333371046571853,0.5033892966494946,0.7803630282172414,0.18614719375102062
641000000,420,641000000,,base_to_link1,link1_to_link2,link2_to_link3,-1.0411856316219286,-0.05201083639063597,-0.039019357086339745,-0.02815364917850837,-0.06038325047501536,-0.019446373880089747,0.5036157443699096,0.7813288031420029,0.18645826169009005
642000000,421,642000000,,base_to_link1,link1_to_link2,link2_to_link3,-1.04121372168804,-0.05207155541023312,-0.03903891178561825,-0.028090066088319664,-0.06071907736645688,-0.019554695782254328,0.5038376109786924,0.7822831916389994,0.18676572831345162
643000000,422,643000000,,base_to_link1,link1_to_link2,link2_to_link3,-1.0412417443286035,-0.05213259568792239,-0.03905857017631664,-0.028022640541157613,-0.061040335920987274,-0.019658387190085037,0.5040549285472373,0.7832262082434305,0.1870695972230063
644000000,423,644000000,,base_to_link1,link1_to_link2,link2_to_link3,-1.041269695771451,-0.052193942817190475,-0.0390783276783937,-0.027951442828037208,-0.061347187941684034,-0.01975749855333815,0.5042677294050613,0.7841578691124518,0.18736987254988513
645000000,424,645000000,,base_to_link1,link1_to_link2,link2_to_link3,-1.0412975723142477,-0.052255582553268454,-0.039098179762251384,-0.027876542776795295,-0.06163979517289611,-0.019852080322398838,0.5044760461173681,0.7850781919839456,0.1876665589493154
646000000,425,646000000,,base_to_link1,link1_to_link2,link2_to_link3,-1.0413253703240137,-0.052317500813046536,-0.03911812194874553,-0.027798009747522855,-0.06191831927279332,-0.019942182946959208,0.5046799114947298,0.7859871961546183,0.18795966156852195
647000000,426,647000000,,base_to_link1,link1_to_link2,link2_to_link3,-1.0413530862366613,-0.0523796836749586,-0.039138149809164524,-0.027715912629667373,-0.06218292179044598,-0.020027856861493387,0.5048793585616451,0.7868849024525026,0.18824918606992647
648000000,427,648000000,,base_to_link1,link1_to_link2,link2_to_link3,-1.0413807165565139,-0.0524421173788614,-0.03915825896521152,-0.027630319837471565,-0.06243376414111243,-0.020109152479530976,0.5050744205696844,0.7877713332056047,0.18853513859895976
649000000,428,649000000,,base_to_link1,link1_to_link2,link2_to_link3,-1.0414082578558368,-0.05250478832585692,-0.03917844508897428,-0.027541299307767796,-0.06267100758076957,-0.02018612018712221,0.505265130973136,0.788646512235367,0.18881752578743694
650000000,429,650000000,,base_to_link1,link1_to_link2,link2_to_link3,-1.0414357067743438,-0.052567683078136085,-0.03919870390289315,-0.02744891849371224,-0.06289481318526613,-0.020258810331521243,0.5054515234367507,0.7895104647980489,0.18909635474082087
651000000,430,651000000,,base_to_link1,link1_to_link2,link2_to_link3,-1.0414630600187227,-0.05263078835874602,-0.03921903117970427,-0.02735324436557844,-0.06310534182424236,-0.020327273216706965,0.5056336318059351,0.7903632176044795,0.18937163303612614
652000000,431,652000000,,base_to_link1,link1_to_link2,link2_to_link3,-1.0414903143621377,-0.052694091051380454,-0.03923942274240044,-0.02725434340401515,-0.06330275413910758,-0.020391559096465048,0.5058114901215482,0.7912047987413473,0.18964336869648157
653000000,432,653000000,,base_to_link1,link1_to_link2,link2_to_link3,-1.0415174666437483,-0.052757578200129274,-0.03925987446417256,-0.027152281599236123,-0.06348721052116295,-0.020451718164379656,0.5059851325918352,0.7920352376921969,0.18991157020850302
654000000,433,654000000,,base_to_link1,link1_to_link2,link2_to_link3,-1.0415445137682031,-0.0528212370091925,-0.03928038226833319,-0.027047124446238538,-0.0636588710893304,-0.02050780054600776,0.5061545936036005,0.7928545652940677,0.19017624650216725
655000000,434,655000000,,base_to_link1,link1_to_link2,link2_to_link3,-1.0415714527051563,-0.05288505484259787,-0.03930094212824731,-0.026938936944067418,-0.06381789566796725,-0.02055985629469355,0.5063199076922764,0.7936628136991075,0.1904374069322845
656000000,435,656000000,,base_to_link1,link1_to_link2,link2_to_link3,-1.0415982804887545,-0.052949019223881066,-0.03932155006725413,-0.026827783591071682,-0.06396444376520966,-0.02060793538361938,0.506481109560184,0.7944600163753002,0.1906950612849112
657000000,436,657000000,,base_to_link1,link1_to_link2,link2_to_link3,-1.0416249942171465,-0.05301311783575002,-0.039342202158580086,-0.02671372838388861,-0.0640986745522337,-0.020652087697947116,0.5066382340412012,0.795246208065965,0.19094921976768653
658000000,437,658000000,,base_to_link1,link1_to_link2,link2_to_link3,-1.0416515910519646,-0.05307733851972252,-0.03936289452524111,-0.026596834813555986,-0.064220746843752,-0.0206923630269972,0.506791316118953,0.7960214247704123,0.19119989300008022
659000000,438,659000000,,base_to_link1,link1_to_link2,link2_to_link3,-1.0416780682178324,-0.053141669275758474,-0.03938362333993428,-0.026477165864600055,-0.06433081907580811,-0.020728811059426644,0.5069403908932024,0.7967857037136739,0.19144709200175747
660000000,439,660000000,,base_to_link1,link1_to_link2,link2_to_link3,-1.0417044230018497,-0.053206098261847856,-0.039404384824952565,-0.02635478401240902,-0.06442904928528677,-0.020761481380518712,0.5070854936015756,0.7975390833374973,0.19169082818083716
661000000,440,661000000,,base_to_link1,link1_to_link2,link2_to_link3,-1.0417306527530705,-0.053270613793607424,-0.0394251752520427,-0.026229751218743054,-0.06451559509505427,-0.020790423453078494,0.5072266595913177,0.7982816032518159,0.1919311133561319
662000000,441,662000000,,base_to_link1,link1_to_link2,link2_to_link3,-1.0417567548820053,-0.05333520434383665,-0.03944599094231105,-0.026102128934324,-0.06459061368777323,-0.020815686627556576,0.507363924306965,0.7990133042395975,0.19216795969888345
663000000,442,663000000,,base_to_link1,link1_to_link2,link2_to_link3,-1.0417827268600988,-0.053399858542061196,-0.03946682826607262,-0.02597197809229547,-0.0646542617933326,-0.020837320120850045,0.5074973233102398,0.7997342282115483,0.192401379779783
664000000,443,664000000,,base_to_link1,link1_to_link2,link2_to_link3,-1.041808566219208,-0.05346456517406395,-0.039487683642733806,-0.02583935910891639,-0.06470669566604703,-0.020855373021751486,0.5076268922499594,0.8004444181891124,0.19263138651061773
665000000,444,665000000,,base_to_link1,link1_to_link2,link2_to_link3,-1.0418342705510888,-0.053529313181389426,-0.03950855354065386,-0.025704331881806486,-0.06474807106812154,-0.02086989427891002,0.5077526668568133,0.8011439182873481,0.19285799317684926
666000000,445,666000000,,base_to_link1,link1_to_link2,link2_to_link3,-1.0418598375068733,-0.0535940916608304,-0.03952943447698676,-0.02556695578718526,-0.06477854325269329,-0.0208809326938275,0.5078746829471115,0.8018327736833264,0.1930812134149118
667000000,446,667000000,,base_to_link1,link1_to_link2,link2_to_link3,-1.0418852647965497,-0.053658889863910986,-0.039550323017544464,-0.025427289679134334,-0.06479826694426746,-0.02088853692058959,0.5079929764086799,0.8025110305932337,0.19330106119109125
668000000,447,668000000,,base_to_link1,link1_to_link2,link2_to_link3,-1.041910550188435,-0.05372369719633241,-0.03957121577663347,-0.025285391888007127,-0.0648073963231901,-0.02089275545552166,0.5081075831974324,0.80317873626365,0.1935175508214737
669000000,448,669000000,,base_to_link1,link1_to_link2,link2_to_link3,-1.0419356915086482,-0.05378850321741169,-0.0395921094168985,-0.025141320219029147,-0.06480608500804691,-0.020893636633676785,0.5082185393249894,0.8038359389287031,0.19373069694366585
670000000,449,670000000,,base_to_link1,link1_to_link2,link2_to_link3,-1.0419606866405946,-0.053853297639509634,-0.03961300064914841,-0.024995131951516786,-0.0647944860403796,-0.020891228620631502,0.508325880855196,0.8044826877973499,0.19394051452233718
671000000,450,671000000,,base_to_link1,link1_to_link2,link2_to_link3,-1.0419855335244232,-0.05391807032743401,-0.03963388623218389,-0.024846883836499273,-0.06477275186721737,-0.020885579410778787,0.5084296439078351,0.8051190330369984,0.19414701882971563
672000000,451,672000000,,base_to_link1,link1_to_link2,link2_to_link3,-1.0420102301565155,-0.053982811297824895,-0.039654762972626934,-0.02469663209779576,-0.06474103432480985,-0.02087673682240289,0.5085298646283398,0.8057450257426702,0.19435022544564085
673000000,452,673000000,,base_to_link1,link1_to_link2,link2_to_link3,-1.0420347745889362,-0.054047510718543634,-0.03967562772472899,-0.024544432428404674,-0.06469948462591578,-0.02086474848709842,0.5086265792128764,0.8063607179130905,0.19455015025763522
674000000,453,674000000,,base_to_link1,link1_to_link2,link2_to_link3,-1.0420591649289204,-0.05411215890801202,-0.03969647739019333,-0.02439033999317561,-0.06464825334069929,-0.02084966185267166,0.508719823865551,0.8069661624481306,0.1947468094376692
675000000,454,675000000,,base_to_link1,link1_to_link2,link2_to_link3,-1.0420833993383347,-0.054176746334571035,-0.03971730891796543,-0.024234409423977803,-0.06458749038648745,-0.020831524168521826,0.508809634828804,0.8075614130924613,0.19494021945459572
676000000,455,676000000,,base_to_link1,link1_to_link2,link2_to_link3,-1.0421074760331468,-0.05424126361581294,-0.03973811930405535,-0.02407669482234942,-0.06451734500889161,-0.020810382491562154,0.5088960483531579,0.8081465244486807,0.19513039704007973
677000000,456,677000000,,base_to_link1,link1_to_link2,link2_to_link3,-1.042131393282892,-0.05430570151788494,-0.03975890559131923,-0.02391724975725172,-0.06443796577084228,-0.02078628367237563,0.5089791006990119,0.8087215519439894,0.19531735921879623
678000000,457,678000000,,base_to_link1,link1_to_link2,link2_to_link3,-1.0421551494101458,-0.05437005095480352,-0.03977966486926032,-0.02375612726493742,-0.06434950053709651,-0.02075927435586432,0.5090588281295361,0.8092865517948056,0.19550112326538915
679000000,458,679000000,,base_to_link1,link1_to_link2,link2_to_link3,-1.0421787427899822,-0.05443430298773677,-0.039800394273810547,-0.023593379848811272,-0.06425209646179789,-0.020729400974497686,0.5091352669107252,0.8098415810105664,0.1956817067220218
680000000,459,680000000,,base_to_link1,link1_to_link2,link2_to_link3,-1.042202171849448,-0.05449844882428323,-0.03982109098712616,-0.023429059479141815,-0.06414589997325945,-0.020696709746879968,0.5092084532917696,0.810386697354577,0.1958591273766519
681000000,460,681000000,,base_to_link1,link1_to_link2,link2_to_link3,-1.0422254350670261,-0.0545624798177311,-0.03984175223735509,-0.02326321759249937,-0.06403105676401026,-0.020661246667688024,0.5092784235157843,0.8109219593332462,0.1960334032751998
682000000,461,682000000,,base_to_link1,link1_to_link2,link2_to_link3,-1.0422485309721043,-0.05462638746631221,-0.03986237529841308,-0.023095905091733895,-0.06390771177609045,-0.020623057508818904,0.5093452138037868,0.8114474261691385,0.19620455269079962
683000000,462,683000000,,base_to_link1,link1_to_link2,link2_to_link3,-1.0422714581444357,-0.05469016341243638,-0.039882957489770554,-0.022927172346266473,-0.06377600918835276,-0.020582187815553377,0.5094088603547142,0.8119631577881847,0.19637259413044283
684000000,463,684000000,,base_to_link1,link1_to_link2,link2_to_link3,-1.0422942152136105,-0.05475379944192049,-0.03990349617619682,-0.022757069191446946,-0.06363609240749092,-0.020538682894919336,0.5094693993311417,0.8124692147924861,0.19653754634350484
685000000,464,685000000,,base_to_link1,link1_to_link2,link2_to_link3,-1.042316800858524,-0.05481728748319803,-0.03992398876754155,-0.022585644929925965,-0.06348810405233644,-0.020492587822763836,0.509526866866441,0.8129656584472755,0.1966994282765544
686000000,465,686000000,,base_to_link1,link1_to_link2,link2_to_link3,-1.0423392138068373,-0.05488061960652679,-0.03994443271848258,-0.022412948329693393,-0.06333218594609828,-0.020443947430491757,0.5095812990541226,0.8134525506534729,0.1968582591084722
687000000,466,687000000,,base_to_link1,link1_to_link2,link2_to_link3,-1.0423614528344451,-0.0549437880231789,-0.039964825528289616,-0.022239027626921405,-0.06316847910245542,-0.02039280630814741,0.5096327319371241,0.8139299539379863,0.19701405821417772
688000000,467,688000000,,base_to_link1,link1_to_link2,link2_to_link3,-1.0423835167649536,-0.05500678508462009,-0.039985164740573786,-0.0220639305250239,-0.0629971237162973,-0.020339208796722533,0.50968120150781,0.8143979314278482,0.19716684517825378
