%time,field.header.seq,field.header.stamp,field.header.frame_id,field.name0,field.name1,field.name2,field.position0,field.position1,field.position2,field.velocity0,field.velocity1,field.velocity2,field.effort0,field.effort1,field.effort2
12136000000,11902,12133000000,,base_to_link1,link1_to_link2,link2_to_link3,0.0,0.0,0.0,2.859540799408495e-15,2.088059529617438e-14,1.7238589520278732e-15,0.0,0.0,0.0
12136000000,11903,12134000000,,base_to_link1,link1_to_link2,link2_to_link3,-9.041727056668947e-05,1.464532251027606e-06,-1.6449846391708434e-06,-0.09041727041005077,0.0014643310854984797,-0.001644983957392502,0.0,0.0,0.0
12136000000,11904,12135000000,,base_to_link1,link1_to_link2,link2_to_link3,-0.0002576638288012134,-2.594034181235827e-06,3.465729784934979e-06,-0.16724655850846015,-0.004057998053195125,0.005110711156249949,0.09132153368962694,-0.0014791790380701332,0.001661436130547191
12136000000,11905,12136000000,,base_to_link1,link1_to_link2,link2_to_link3,-0.0004912139329800169,-1.611964654113507e-05,1.7535995083584055e-05,-0.2335501053278546,-0.013525907921613194,0.014070267484987837,0.16982354460363544,0.004084507903577722,-0.005145373542700318
12137000000,11906,12137000000,,base_to_link1,link1_to_link2,link2_to_link3,-0.0007824586926208354,-4.157598783915972e-05,4.020951537420103e-05,-0.29124476175156594,-0.02545637760750056,0.022673520737571756,0.23846308280363604,0.013686826074459063,-0.014245644606225146
12138000000,11907,12138000000,,base_to_link1,link1_to_link2,link2_to_link3,-0.0011241269748278881,-8.065137734813987e-05,7.016382264080079e-05,-0.34166828547922756,-0.039075385552128764,0.029954307306060055,0.29907096832075186,0.025872160001552562,-0.023075675010614593
12139000000,11908,12139000000,,base_to_link1,link1_to_link2,link2_to_link3,-0.00150996693196781,-0.00013459078879929365,0.00010579959235723635,-0.3858399617641189,-0.053939387768037285,0.035635769846904614,0.3529122978360314,0.03988204275897521,-0.03065607522308601
12140000000,11909,12140000000,,base_to_link1,link1_to_link2,link2_to_link3,-0.0019345514848421175,-0.00020435546496688772,0.00014552858681504688,-0.4245845589685537,-0.06976463699710952,0.039728994845471675,0.40094388230723166,0.05528559340644917,-0.036694001169678525
12141000000,11910,12141000000,,base_to_link1,link1_to_link2,link2_to_link3,-0.0023931455729258033,-0.00029070507038664317,0.0001878852606642667,-0.4585940957064609,-0.08634955285002349,0.04235667455262959,0.4439362581218453,0.07180870924003038,-0.04118466138421841
12142000000,11911,12142000000,,base_to_link1,link1_to_link2,link2_to_link3,-0.00288160668591253,-0.0003942437734094639,0.00023156176479144364,-0.4884611221471903,-0.10353863823900022,0.0436765051985708,0.4825341273576334,0.08925742525145969,-0.044236095399380566
12143000000,11912,12143000000,,base_to_link1,link1_to_link2,link2_to_link3,-0.0033963052225782775,-0.000515449066779361,0.00027541065675240617,-0.5146985473369621,-0.12120521741870369,0.04384889343933651,0.5172886449972274,0.10748230412852662,-0.04599292228037425
12144000000,11913,12144000000,,base_to_link1,link1_to_link2,link2_to_link3,-0.00393405806376812,-0.0006546918951686465,0.00031843484545746037,-0.5377528533164356,-0.13924274269184356,0.04302419059599545,0.5486764503481283,0.12636146285836866,-0.04660407444442622
12145000000,11914,12145000000,,base_to_link1,link1_to_link2,link2_to_link3,-0.004492071879047543,-0.0008122520176714332,0.00035977325239588964,-0.558013828794151,-0.15756002880867204,0.04133840921083752,0.5771122173421854,0.14579208085354511,-0.04620993151041389
12146000000,11915,12146000000,,base_to_link1,link1_to_link2,link2_to_link3,-0.005067894141506102,-0.0009883304513875757,0.0003986857851554504,-0.5758222772793063,-0.17607833382275392,0.03891253534994138,0.6029578216564396,0.1656857884440919,-0.04493789358642565
12147000000,11916,12147000000,,base_to_link1,link1_to_link2,link2_to_link3,-0.005659370527924423,-0.001183059915152107,0.0004345390745656985,-0.5914764024662553,-0.19472935936835772,0.03585329222981076,0.6265295593543019,0.1859658723250605,-0.04290154342093788
12148000000,11917,12148000000,,base_to_link1,link1_to_link2,link2_to_link3,-0.006264607747098694,-0.0013965137726605903,0.000466793491941786,-0.6052372363579471,-0.21345375012554113,0.03225442031072723,0.6481041065487759,0.20656538007100983,-0.04020126750480231
12149000000,11918,12149000000,,base_to_link1,link1_to_link2,link2_to_link3,-0.006881941048634488,-0.0016287137747523772,0.0004949915607408428,-0.6173333197712261,-0.23219989306927902,0.028198071712511347,0.6679235761042148,0.22742570890381916,-0.03692540643789448
12150000000,11919,12150000000,,base_to_link1,link1_to_link2,link2_to_link3,-0.007509905798297467,-0.0018796368007256703,0.0005187477110144556,-0.6279647688665745,-0.25092291646626846,0.023756153004325486,0.686199873422145,0.2484954822218155,-0.033151533540415154
12151000000,11920,12151000000,,base_to_link1,link1_to_link2,link2_to_link3,-0.00814721260021578,-0.002149220745148561,0.0005377392637093692,-0.637306822006622,-0.2695838354137287,0.018991555057539078,0.7031184789517582,0.2697296159998553,-0.028947695265418228
12152000000,11921,12152000000,,base_to_link1,link1_to_link2,link2_to_link3,-0.008792725518725675,-0.0024373696661283972,0.0005516985159976784,-0.6455129394072828,-0.2881488132787158,0.013959254067550164,0.718841746438876,0.2910885231144272,-0.02437355095293189
12153000000,11922,12153000000,,base_to_link1,link1_to_link2,link2_to_link3,-0.009445443011758314,-0.002743958291119064,0.0005604058015364899,-0.6527175146635805,-0.3065885192556081,0.008707286483078391,0.7335117849410739,0.3125374262508368,-0.019481394767726576
12154000000,11923,12154000000,,base_to_link1,link1_to_link2,link2_to_link3,-0.010104481237414475,-0.003068835962102945,0.0005636834093367682,-0.6590382479508294,-0.3248775677307234,0.00327760760957313,0.7472529798371578,0.3340457604698654,-0.014317061279418543
12155000000,11924,12155000000,,base_to_link1,link1_to_link2,link2_to_link3,-0.010769059438176853,-0.003411830090661816,0.0005613902566894424,-0.6645782236617719,-0.3429940281928507,-0.0022931543381292108,0.7601741991984783,0.35558665200888023,-0.008920723302297463
12156000000,11925,12156000000,,base_to_link1,link1_to_link2,link2_to_link3,-0.011438487144248555,-0.003772749184263624,0.0005534172234034074,-0.6694277295142216,-0.36091899642017294,-0.007973036929851685,0.7723707253717571,0.37713646269955,-0.0033275927184768213
12157000000,11926,12157000000,,base_to_link1,link1_to_link2,link2_to_link3,-0.01211215296971524,-0.0041513854971411135,0.0005396830656119178,-0.673665849395341,-0.37863621909982254,-0.013734163977926817,0.7839259462289417,0.39867439142768923,0.0024314648358694036
12158000000,11927,12158000000,,base_to_link1,link1_to_link2,link2_to_link3,-0.01278951480347601,-0.0045475173525018064,0.0005201308372937419,-0.6773618581258025,-0.39613176514105075,-0.01955223783490384,0.7949128360315619,0.42018212521764264,0.008329391236173204
12159000000,11928,12159000000,,base_to_link1,link1_to_link2,link2_to_link3,-0.013470091221504887,-0.004960911176904226,0.0004947247565310064,-0.6805764427845173,-0.41339373783440164,-0.025406094704977455,0.8053952521780582,0.4416435337718056,0.01434246391520404
12160000000,11929,12160000000,,base_to_link1,link1_to_link2,link2_to_link3,-0.014153453968566154,-0.00539132328252645,0.0004634474612990047,-0.6833627721656024,-0.4304120227583465,-0.03127731519902355,0.815429070717676,0.4630444019687331,0.020449882442634355
12161000000,11930,12161000000,,base_to_link1,link1_to_link2,link2_to_link3,-0.014839221376407252,-0.005838501428644172,0.00042629760645152004,-0.6857674332514384,-0.4471780669748443,-0.037149883298337294,0.8250631806746465,0.48437219556804284,0.026633406416759382
12162000000,11931,12162000000,,base_to_link1,link1_to_link2,link2_to_link3,-0.015527052601960634,-0.0063021861896830345,0.0003832877596670059,-0.6878312512350501,-0.4636846856122009,-0.04300988774819969,0.834340354754265,0.5056158560261459,0.03287703828311072
12163000000,11932,12163000000,,base_to_link1,link1_to_link2,link2_to_link3,-0.016216642583621876,-0.006782112153822517,0.0003344425596187861,-0.6895900075813038,-0.479925892400947,-0.048845260681934066,0.8432980117746842,0.5267656207438655,0.039166745400225654
12164000000,11933,12164000000,,base_to_link1,link1_to_link2,link2_to_link3,-0.01690771762631904,-0.007278008973035988,0.0002797971050432224,-0.6910750688263776,-0.4958967511206937,-0.054645549036954066,0.8519688843417416,0.547812865598034,0.04549021622185389
12165000000,11934,12165000000,,base_to_link1,link1_to_link2,link2_to_link3,-0.017600031537311267,-0.00778960228268577,0.0002193955506735179,-0.6923139372996769,-0.5115932451514985,-0.0604017152585673,0.8603816035222613,0.5687499668731296,0.05183664549784838
12166000000,11935,12166000000,,base_to_link1,link1_to_link2,link2_to_link3,-0.018293362244660827,-0.008316614505752717,0.00015328990820417943,-0.6933307338124196,-0.5270121621090309,-0.06610596578987205,0.8685612109587825,0.5895701800082223,0.05819654144013557
12167000000,11936,12167000000,,base_to_link1,link1_to_link2,link2_to_link3,-0.01898750884064171,-0.008858765550905368,8.1539239658035e-05,-0.6941466225721195,-0.5421509876691415,-0.07175161494474969,0.8765296077518565,0.610267532270562,0.06456153267455472
12168000000,11937,12168000000,,base_to_link1,link1_to_link2,link2_to_link3,-0.019682289016099475,-0.00941577337606514,4.243175694362833e-06,-0.6947802021580162,-0.5570077710901828,-0.07733307912472653,0.8843059498518284,0.6308367235733423,0.07092398389758245
12169000000,11938,12169000000,,base_to_link1,link1_to_link2,link2_to_link3,-0.02037753961912081,-0.00998734849808347,-7.8659944912296e-05,-0.695250629808635,-0.5715750712784924,-0.0828619894291831,0.8919070133723053,0.6512729976054381,0.07724233571157123
12170000000,11939,12170000000,,base_to_link1,link1_to_link2,link2_to_link3,-0.02107310029023246,-0.01057322405615313,-0.00016693008146173582,-0.6955606979690443,-0.5858755106783509,-0.08827124742570558,0.8993503245057081,0.6715660330326781,0.08367850222056938
12171000000,11940,12171000000,,base_to_link1,link1_to_link2,link2_to_link3,-0.021768839259943107,-0.011173101741563052,-0.0002605686873549118,-0.695738996619734,-0.599877641203317,-0.09363896428064766,0.9066370724074293,0.6917357978887597,0.08992838645892624
12172000000,11941,12172000000,,base_to_link1,link1_to_link2,link2_to_link3,-0.022464627401211246,-0.011786698516401906,-0.00035949096045850837,-0.6957881682136942,-0.613596733786008,-0.09892245171803116,0.913794529542792,0.7117478751848628,0.09623350243028149
12173000000,11942,12173000000,,base_to_link1,link1_to_link2,link2_to_link3,-0.023160345960915762,-0.012413730561291025,-0.00046361254316185097,-0.6957185866703122,-0.6270320069526734,-0.10412169133755012,0.9208240471403669,0.7316147190606996,0.10250675186269853
12174000000,11943,12174000000,,base_to_link1,link1_to_link2,link2_to_link3,-0.02385588499342184,-0.013053914206550665,-0.0005728479551292409,-0.6955390594780417,-0.6401836103893717,-0.10923548660161286,0.927734811519751,0.7513327232904181,0.10874774090202113
12175000000,11944,12175000000,,base_to_link1,link1_to_link2,link2_to_link3,-0.024551142204014553,-0.013706966397024622,-0.0006871103780161647,-0.6952572375603594,-0.6530521586079694,-0.11426247881230411,0.9345345305313646,0.7708992140277412,0.11495449713369753
12176000000,11945,12176000000,,base_to_link1,link1_to_link2,link2_to_link3,-0.0252460220034596,-0.014372604995007698,-0.0008063117558139155,-0.6948798263936261,-0.6656385690711613,-0.11920142262963818,0.9412298318661341,0.7903119881131951,0.12112481939247861
12177000000,11946,12177000000,,base_to_link1,link1_to_link2,link2_to_link3,-0.025940434707399262,-0.015050549005498404,-0.0009303629881474151,-0.6944127308584956,-0.677943984479728,-0.12405127029913143,0.9478264647349208,0.8095691542071396,0.1272565943930389
12178000000,11947,12178000000,,base_to_link1,link1_to_link2,link2_to_link3,-0.026634295847072664,-0.01574051875703386,-0.0010591741418268796,-0.6938611665517679,-0.6899697283871592,-0.1288111873170229,0.9543294367036395,0.8286690573686815,0.13334789161511099
12179000000,11948,12179000000,,base_to_link1,link1_to_link2,link2_to_link3,-0.02732752557110274,-0.016442236053198833,-0.001192654653574543,-0.6932297508569721,-0.701717275833243,-0.13348054268379572,0.9607431181299604,0.8476102364475453,0.13939698367201225
12180000000,11949,12180000000,,base_to_link1,link1_to_link2,link2_to_link3,-0.02802004812445702,-0.017155424302292666,-0.0013307135149362992,-0.6925225801207613,-0.7131882315345137,-0.13805889068371047,0.967071327252506,0.8663913962747628,0.14540233951234138
12181000000,11950,12181000000,,base_to_link1,link1_to_link2,link2_to_link3,-0.028711791393932984,-0.017879808629559513,-0.0014732594372803831,-0.6917432961735184,-0.7243843124427793,-0.1425459508102369,0.9733174021583777,0.8850113871188637,0.15136260845356664
12182000000,11951,12182000000,,base_to_link1,link1_to_link2,link2_to_link3,-0.029402686511412313,-0.018615115974857765,-0.0016202009975332388,-0.6908951440976608,-0.7353073331676923,-0.14694158841152816,0.9794842627662153,0.9034691883731765,0.15727660191877252
12183000000,11952,12183000000,,base_to_link1,link1_to_link2,link2_to_link3,-0.030092667507435777,-0.01936107517783814,-0.0017714467662299782,-0.6899810225562651,-0.7459591935012492,-0.15124579694825047,0.9855744646308847,0.9217638949735396,0.16314327563107034
12184000000,11953,12184000000,,base_to_link1,link1_to_link2,link2_to_link3,-0.030781671008721645,-0.020117417052298414,-0.0019269054196788815,-0.6890035277241358,-0.7563418675996608,-0.15545868210222935,0.9915902458027629,0.9398947057606414,0.16896171320868775
12185000000,11954,12185000000,,base_to_link1,link1_to_link2,link2_to_link3,-0.03146963597406227,-0.020883874451112838,-0.0020864858381122176,-0.6879649916761836,-0.7664573945310577,-0.15958044772291557,0.9975335677490329,0.9578609134021991,0.1747311114007603
12186000000,11955,12186000000,,base_to_link1,link1_to_link2,link2_to_link3,-0.032156503463781405,-0.021660182322844612,-0.002250097191452305,-0.6868675159479742,-0.776307869990339,-0.16361138344876758,1.0034061510931718,0.9756618956189429,0.18045076705536453
12187000000,11956,12187000000,,base_to_link1,link1_to_link2,link2_to_link3,-0.03284221643854934,-0.022446077761107297,-0.002417649014216927,-0.6857130008784849,-0.7858954390215807,-0.16755185383871263,1.009209506872335,0.9932971074359334,0.18612006559270816
12188000000,11957,12188000000,,base_to_link1,link1_to_link2,link2_to_link3,-0.03352671958382203,-0.02324130004749758,-0.0025890512708999225,-0.6845031712604429,-0.7952222896174039,-0.17140228883931208,1.0149449638852568,1.0107660744272322,0.19173847089390347
12189000000,11958,12189000000,,base_to_link1,link1_to_link2,link2_to_link3,-0.03420995915672265,-0.0240455906889272,-0.0027642144129904622,-0.6832395987616564,-0.8042906470861294,-0.17516317541879178,1.0206136925623153,1.0280683867187823,0.19730551643037747
12190000000,11959,12190000000,,base_to_link1,link1_to_link2,link2_to_link3,-0.03489188285251643,-0.02485869344997038,-0.002943049428650646,-0.6819237215201583,-0.8131027690880809,-0.17883505023620838,1.0262167258784105,1.0452036937630997,0.20282079747324022
12191000000,11960,12191000000,,base_to_link1,link1_to_link2,link2_to_link3,-0.035572439688195345,-0.025680354380827275,-0.0031254678859840013,-0.6805568612620333,-0.8216609412586239,-0.1824184932157482,1.0317549776123673,1.0621716996805475,0.20828396424891465
12192000000,11961,12192000000,,base_to_link1,link1_to_link2,link2_to_link3,-0.036251579901012576,-0.026510321841462847,-0.0033113819706516168,-0.6791402382562577,-0.829967473348735,-0.18591412190326384,1.037229258293974,1.0789721591572077,0.2136947159633059
12193000000,11962,12193000000,,base_to_link1,link1_to_link2,link2_to_link3,-0.0369292548600999,-0.027348346522283684,-0.0035007045185588836,-0.677674984375743,-0.8380246958095731,-0.1893225865307374,1.042640289140364,1.0956048738640838,0.21905279552621282
12194000000,11963,12194000000,,base_to_link1,link1_to_link2,link2_to_link3,-0.037605416989462626,-0.02819418146183761,-0.0036933490441883876,-0.676162154493727,-0.8458349567800608,-0.19264456567070598,1.0479887142561934,1.1120696892040791,0.22435798494945544
12195000000,11964,12195000000,,base_to_link1,link1_to_link2,link2_to_link3,-0.038280019700927426,-0.029047582061831,-0.0038892297651509367,-0.674602736434151,-0.8534006194141369,-0.19588076243933983,1.0532751112422063,1.1283664915141676,0.22961010127703174
12196000000,11965,12196000000,,base_to_link1,link1_to_link2,link2_to_link3,-0.03895301733577483,-0.029908306099769355,-0.004088261623375722,-0.6729976596490416,-0.8607240595145802,-0.19903190115238412,1.0585000004786325,1.1444952055356314,0.23480899304946748
12197000000,11966,12197000000,,base_to_link1,link1_to_link2,link2_to_link3,-0.03962436511392653,-0.030776113739510613,-0.004290360303389029,-0.6713478027854902,-0.8678076634321152,-0.20209872439695042,1.0636638532270477,1.1604557921660763,0.23995453715557485
12198000000,11967,12198000000,,base_to_link1,link1_to_link2,link2_to_link3,-0.04029401908974961,-0.03165076753994622,-0.0044954422479994705,-0.6696540002793677,-0.8746538261982023,-0.20508199045498954,1.0687670986779716,1.1762482464801325,0.24504663610453345
12199000000,11968,12199000000,,base_to_link1,link1_to_link2,link2_to_link3,-0.040961936113571795,-0.03253203246201597,-0.0047034246717450046,-0.667917048098281,-0.8812649498610984,-0.20798247104607004,1.073810130126675,1.19187259594638,0.2500852155900198
12200000000,11969,12200000000,,base_to_link1,link1_to_link2,link2_to_link3,-0.0416280737982202,-0.03341967587424133,-0.0049142255723273465,-0.6661377087436902,-0.887643442003458,-0.21080094933601345,1.0787933103001135,1.2073288988336766,0.2550702223872397
12201000000,11970,12201000000,,base_to_link1,link1_to_link2,link2_to_link3,-0.042292390489913956,-0.034313467556937205,-0.005127763740332192,-0.6643167156000919,-0.8937917144143809,-0.21353821819591468,1.0837169760466159,1.2226172427874162,0.2600016224554433
12202000000,11971,12202000000,,base_to_link1,link1_to_link2,link2_to_link3,-0.04295484524291204,-0.03521317970522286,-0.005343958767366708,-0.6624547767132636,-0.8997121819046187,-0.21619507865679755,1.088581442399395,1.2377377435524504,0.26487939932173554
12203000000,11972,12203000000,,base_to_link1,link1_to_link2,link2_to_link3,-0.04361539779747048,-0.03611858693098835,-0.005562731052905612,-0.6605525780789105,-0.9054072612348035,-0.21877233856996114,1.09338700607895,1.2526905438047937,0.26970355258051854
12204000000,11973,12204000000,,base_to_link1,link1_to_link2,link2_to_link3,-0.04427400856063812,-0.03702946626387327,-0.005784001809883144,-0.6586107864895011,-0.9108793701605375,-0.22127081140198201,1.0981339485826802,1.2674758121292076,0.27447409667134864
12205000000,11974,12205000000,,base_to_link1,link1_to_link2,link2_to_link3,-0.0449306385895234,-0.037945597151398225,-0.0060076930692885,-0.656630052006097,-0.916130926561262,-0.22369131519695173,1.1028225388321258,1.2820937420437515,0.27919105968156166
12206000000,11975,12206000000,,base_to_link1,link1_to_link2,link2_to_link3,-0.04558524957670329,-0.03886676145831114,-0.006233727683791379,-0.6546110100964365,-0.9211643476588648,-0.22603467164080582,1.1074530354771983,1.2965445511561926,0.28385448239650907
12207000000,11976,12207000000,,base_to_link1,link1_to_link2,link2_to_link3,-0.046237803837479774,-0.03979274346519812,-0.006462029330591257,-0.6525542834867786,-0.9259820493018053,-0.22830170525460458,1.1120256888931928,1.3108284803747363,0.28846441736674433
12208000000,11977,12208000000,,base_to_link1,link1_to_link2,link2_to_link3,-0.04688826429873849,-0.04072332986648686,-0.006692522513504606,-0.6504604837568498,-0.93058644532088,-0.23049324265997662,1.1165407429013852,1.3249457931611404,0.2930209281610724
12209000000,11978,12209000000,,base_to_link1,link1_to_link2,link2_to_link3,-0.04753659448917169,-0.04165830976781759,-0.0069251325644534845,-0.6483302127188659,-0.9349799469309957,-0.2326101119530447,1.120998436260505,1.3388967749056468,0.29752408862619106
12210000000,11979,12210000000,,base_to_link1,link1_to_link2,link2_to_link3,-0.048182758530701975,-0.042597474682888326,-0.007159785644350158,-0.6461640636024032,-0.9391649621923623,-0.23465314212694288,1.1253990039338082,1.3526817322707214,0.30197398230377304
12211000000,11980,12211000000,,base_to_link1,link1_to_link2,link2_to_link3,-0.04882672113092035,-0.04354061852980262,-0.0073964087435038905,-0.6439626220715778,-0.9431438955072183,-0.23662316257790206,1.1297426782047262,1.3663009926361105,0.30637070183617987
12212000000,11981,12212000000,,base_to_link1,link1_to_link2,link2_to_link3,-0.0494684475763858,-0.04448753762694846,-0.007634929681580083,-0.6417264670976023,-0.9469191471591164,-0.2385210026569632,1.13402968961613,1.3797549035673458,0.3107143484935189
12213000000,11982,12213000000,,base_to_link1,link1_to_link2,link2_to_link3,-0.05010790372667806,-0.045438030688447206,-0.007875277107150858,-0.6394561717032627,-0.9504931128850022,-0.24034749127128485,1.1382602677654394,1.3930438323079724,0.3150050317264224
12214000000,11983,12214000000,,base_to_link1,link1_to_link2,link2_to_link3,-0.05074505600909163,-0.04639189881921357,-0.008117380496899251,-0.6371523035986237,-0.9538681834768429,-0.24210345653331844,1.1424346419988987,1.406168165306558,0.31924286875382013
12215000000,11984,12215000000,,base_to_link1,link1_to_link2,link2_to_link3,-0.05137987141385025,-0.04734894550964075,-0.008361170154517872,-0.6348154257180938,-0.9570467444097789,-0.24378972544549637,1.1465530420003487,1.4191283077806602,0.32342798420941976
12216000000,11985,12216000000,,base_to_link1,link1_to_link2,link2_to_link3,-0.05201231748979396,-0.04830897662993028,-0.008606577209302024,-0.63244609667807,-0.9600311754952263,-0.24540712361449601,1.1506156982644082,1.431924683291252,0.3275605098259872
12217000000,11986,12217000000,,base_to_link1,link1_to_link2,link2_to_link3,-0.0526423623404515,-0.04927180042410573,-0.00885353361451191,-0.6300448711586868,-0.9628238505517307,-0.24695647500266016,1.1546228425264133,1.4445577333331288,0.33164058411657005
12218000000,11987,12218000000,,base_to_link1,link1_to_link2,link2_to_link3,-0.053269974620402394,-0.05023722750370485,-0.009101972145493242,-0.6276123002230315,-0.965427137098777,-0.2484386016964556,1.1585747081091653,1.4570279169612281,0.335668352128017
12219000000,11988,12219000000,,base_to_link1,link1_to_link2,link2_to_link3,-0.05389512353194981,-0.05120507084119286,-0.009351826397606011,-0.6251489315873658,-0.9678433960621913,-0.24985432370425953,1.1624715301766495,1.4693357104083975,0.3396439651814217
12220000000,11989,12220000000,,base_to_link1,link1_to_link2,link2_to_link3,-0.054517778821979945,-0.05217514576309856,-0.009603030783943645,-0.622655309836297,-0.970074981500152,-0.25120445876616704,1.1663135460121732,1.4814816067430008,0.34356758066038395
12221000000,11990,12221000000,,base_to_link1,link1_to_link2,link2_to_link3,-0.05513791077901331,-0.05314726994286634,-0.009855520532920714,-0.6201319766051543,-0.9721242403347168,-0.2524898221955638,1.170100995174022,1.493466115525521,0.3474393617794087
12222000000,11991,12222000000,,base_to_link1,link1_to_link2,link2_to_link3,-0.05575549023039983,-0.05412126339348067,-0.010109231685668796,-0.6175794707221106,-0.9739935121048606,-0.2537112267141981,1.1738341196583615,1.5052897624552108,0.35125947742914837
12223000000,11992,12223000000,,base_to_link1,link1_to_link2,link2_to_link3,-0.05637048853962412,-0.05509694845983848,-0.010364101093322198,-0.6149983283240221,-0.9756851287212446,-0.25486948232336915,1.1775131640156102,1.5169530890713028,0.35502810195932716
12224000000,11993,12224000000,,base_to_link1,link1_to_link2,link2_to_link3,-0.05698287760370668,-0.056074149810886986,-0.01062006641416513,-0.6123890829454803,-0.9772014142361322,-0.2559653961720012,1.1811383754341649,1.5284566524268226,0.3587454150422747
12225000000,11994,12225000000,,base_to_link1,link1_to_link2,link2_to_link3,-0.05759262985066549,-0.057052694431544815,-0.010877066110661637,-0.6097522655838871,-0.9785446846209752,-0.25699977243935845,1.184710003810867,1.5398010247778133,0.3624116015066487
12226000000,11995,12226000000,,base_to_link1,link1_to_link2,link2_to_link3,-0.058199718237029074,-0.05803241161440642,-0.011135039446378947,-0.6070884047492048,-0.9797172475512403,-0.2579734122288544,1.1882283017865483,1.550986793288145,0.3660268511912991
12227000000,11996,12227000000,,base_to_link1,link1_to_link2,link2_to_link3,-0.05880411624537807,-0.05901313295123689,-0.011393926482811345,-0.6043980264963524,-0.9807214021987103,-0.25888711346895665,1.191693524773201,1.5620145597321526,0.3695913588087212
12228000000,11997,12228000000,,base_to_link1,link1_to_link2,link2_to_link3,-0.05940579788191336,-0.059994692324267795,-0.011653668076118784,-0.6016816544448054,-0.9815594390308179,-0.2597416708216097,1.195105930958345,1.572884940202273,0.3731053238146163
12229000000,11998,12229000000,,base_to_link1,link1_to_link2,link2_to_link3,-0.060004737674029585,-0.06097692589730119,-0.011914205873762462,-0.5989398097843461,-0.9822336396173194,-0.2605378755933184,1.198465781307875,1.5835985648253408,0.3765689502908075
12230000000,11999,12230000000,,base_to_link1,link1_to_link2,link2_to_link3,-0.06060091066787621,-0.06195967210662179,-0.012175482311083563,-0.5961730112756155,-0.982746276439177,-0.26127651566106536,1.2017733395476482,1.5941560774840648,0.3799824468093578
12231000000,12000,12231000000,,base_to_link1,link1_to_link2,link2_to_link3,-0.06119429242592744,-0.06294277165171724,-0.012437440607791395,-0.5933817752402878,-0.9830996127072839,-0.26195837539285927,1.205028872127178,1.6045581355365752,0.38334602634230214
12232000000,12001,12232000000,,base_to_link1,link1_to_link2,link2_to_link3,-0.061784859024520244,-0.06392606748584573,-0.012700024764385809,-0.5905666155443046,-0.9832959021838205,-0.2625842355772039,1.208232648204731,1.6148054095340423,0.3866599061367191
12233000000,12002,12233000000,,base_to_link1,link1_to_link2,link2_to_link3,-0.06237258705138693,-0.0649094048063974,-0.012963179558503235,-0.5877280435785981,-0.9833373890073651,-0.26315487336047627,1.2113849395912477,1.6248985829758404,0.3899243076140103
12234000000,12003,12234000000,,base_to_link1,link1_to_link2,link2_to_link3,-0.06295745360314875,-0.06589263104511023,-0.013226850541234292,-0.5848665682327381,-0.9832263075232736,-0.26367106218586767,1.2144860207208499,1.6348383520093495,0.3931394562577549
12235000000,12004,12235000000,,base_to_link1,link1_to_link2,link2_to_link3,-0.06353943628278103,-0.06687559585810998,-0.013490984033333042,-0.581982695866423,-0.9829648821217587,-0.26413357172502905,1.2175361685872064,1.6446254251886845,0.39630558154923745
12236000000,12005,12236000000,,base_to_link1,link1_to_link2,link2_to_link3,-0.06411851319706585,-0.06785815111579208,-0.01375552712141559,-0.5790769302801254,-0.982555327072141,-0.26454316783363785,1.2205356626902675,1.6542605232014629,0.3994229168219518
12237000000,12006,12237000000,,base_to_link1,link1_to_link2,link2_to_link3,-0.06469466295398796,-0.06884015089254358,-0.014020427654064527,-0.5761497726802504,-0.9819998463699602,-0.26490061248776764,1.2234847849988633,1.6637443786117396,0.40249169921369554
12238000000,12007,12238000000,,base_to_link1,link1_to_link2,link2_to_link3,-0.0652678646601128,-0.06982145145632312,-0.014285634237924505,-0.57320172164742,-0.9813006335788425,-0.265206663743058,1.2263838198683183,1.673077735599561,0.4055121695342291
12239000000,12008,12239000000,,base_to_link1,link1_to_link2,link2_to_link3,-0.06583809791792916,-0.07080191125806135,-0.014551096233716088,-0.5702332731003588,-0.980459871683738,-0.26546207567720226,1.2292330539969694,1.6822613497168466,0.40848457221810763
12240000000,12009,12240000000,,base_to_link1,link1_to_link2,link2_to_link3,-0.06640534282313837,-0.07178139092095659,-0.01481676375221408,-0.5672449202594058,-0.9794797329439987,-0.26566759834488585,1.2320327763645573,1.6912959876041658,0.4114091552038617
12241000000,12010,12241000000,,base_to_link1,link1_to_link2,link2_to_link3,-0.06696957996194008,-0.07275975322958939,-0.015082587650183221,-0.5642371536144567,-0.9783623787472698,-0.26582397773828415,1.2347832781523251,1.7001824267810628,0.4142861698590029
12242000000,12011,12242000000,,base_to_link1,link1_to_link2,link2_to_link3,-0.06753079040824694,-0.07373686311892325,-0.015348519526267701,-0.5612104608877364,-0.9771099594716582,-0.2659319557389639,1.2374848527128117,1.7089214553581726,0.4171158708974946
12243000000,12012,12243000000,,base_to_link1,link1_to_link2,link2_to_link3,-0.06808895572089924,-0.07471258766314381,-0.015614511716848689,-0.5581653270006006,-0.9757246143461119,-0.2659922700807389,1.2401377954714325,1.7175138718156941,0.41989851629320357
12244000000,12013,12244000000,,base_to_link1,link1_to_link2,link2_to_link3,-0.06864405794081918,-0.07568679606438611,-0.015880517291843255,-0.5551022340371337,-0.9742084713201283,-0.26600565430230116,1.2427424038991095,1.7259604847322714,0.4226343672072387
12245000000,12014,12245000000,,base_to_link1,link1_to_link2,link2_to_link3,-0.06919607958814566,-0.0766593596413232,-0.01614649005048019,-0.5520216612144263,-0.9725636469295593,-0.2659728377163698,1.2452989774239027,1.7342621125624835,0.42532368788805364
12246000000,12015,12246000000,,base_to_link1,link1_to_link2,link2_to_link3,-0.06974500365933878,-0.0776301518176199,-0.01641238451703675,-0.5489240848483056,-0.9707922461686365,-0.2658945453703252,1.2478078173832943,1.7424195833862934,0.4279667456068421
12247000000,12016,12247000000,,base_to_link1,link1_to_link2,link2_to_link3,-0.07029081362423106,-0.07859904811026563,-0.016678155936529215,-0.5458099783224525,-0.9688963623665755,-0.2657714980079351,1.2502692269655142,1.7504337346606844,0.4305638105765504
12248000000,12017,12248000000,,base_to_link1,link1_to_link2,link2_to_link3,-0.07083349342308942,-0.07956592611779723,-0.016943760270387465,-0.542679812061158,-0.9668780770624704,-0.2656044120396841,1.2526835111272334,1.7583054129842925,0.43311515586331817
12249000000,12018,12249000000,,base_to_link1,link1_to_link2,link2_to_link3,-0.07137302746360774,-0.0805306655083724,-0.017209154192078024,-0.5395340534966453,-0.9647394598881015,-0.26539399950423703,1.2550509765753133,1.766035473871579,0.43562105732795375
12250000000,12019,12250000000,,base_to_link1,link1_to_link2,link2_to_link3,-0.07190940061789775,-0.08149314800776164,-0.017474295082702263,-0.536373167044401,-0.9624825684506568,-0.2651409680378334,1.2573719316679206,1.7736247814864239,0.4380817935313621
12251000000,12020,12251000000,,base_to_link1,link1_to_link2,link2_to_link3,-0.07244259821944254,-0.08245325738719966,-0.0177391410265626,-0.5331976140766885,-0.9601094482171691,-0.26484602084519693,1.2596466863831235,1.7810742084423876,0.4404976456663654
12252000000,12021,12252000000,,base_to_link1,link1_to_link2,link2_to_link3,-0.07297260606002709,-0.08341087945113568,-0.018003650806710958,-0.5300078528974764,-0.9576221324047346,-0.2645098566679335,1.261875552251586,1.7883846355429394,0.442868897482094
12253000000,12022,12253000000,,base_to_link1,link1_to_link2,link2_to_link3,-0.07349941038665264,-0.08436590202488059,-0.018267783900427936,-0.5268043387182478,-0.9550226418729127,-0.2641331697500279,1.2640588423032377,1.7955569515597416,0.44519583522240624
12254000000,12023,12254000000,,base_to_link1,link1_to_link2,link2_to_link3,-0.07402299789841393,-0.08531821494213343,-0.01853150047474106,-0.5235875236372611,-0.9523129850135716,-0.2637166498232295,1.2661968710208864,1.8025920530081136,0.44747874751209615
12255000000,12024,12255000000,,base_to_link1,link1_to_link2,link2_to_link3,-0.07454335574337101,-0.0862677100324225,-0.018794761381834668,-0.5203578566170299,-0.9494951576544074,-0.26326098206033144,1.268289954272138,1.8094908439035118,0.44971792535184574
12256000000,12025,12256000000,,base_to_link1,link1_to_link2,link2_to_link3,-0.07506047151539086,-0.08721428110842577,-0.01905752815451489,-0.5171157834670126,-0.9465711429512308,-0.2627668470693617,1.2703384092732355,1.8162542355526714,0.4519136619646515
12257000000,12026,12257000000,,base_to_link1,link1_to_link2,link2_to_link3,-0.0755743332509784,-0.08815782395322014,-0.019319763001571566,-0.5138617468210345,-0.943542911297043,-0.2622349208476533,1.2723425545277234,1.8228831463080026,0.45406625280622137
12258000000,12027,12258000000,,base_to_link1,link1_to_link2,link2_to_link3,-0.07608492942607725,-0.08909823630740821,-0.019581428803184586,-0.5105961861250623,-0.9404124202200658,-0.2616658747773203,1.2743027097845399,1.829378501370998,0.4561759954162416
12259000000,12028,12259000000,,base_to_link1,link1_to_link2,link2_to_link3,-0.07659224895287764,-0.09003541785616509,-0.01984248910625208,-0.5073195376181064,-0.9371816142962119,-0.2610603755853449,1.276219195976269,1.8357412325428903,0.45824318941752035
12260000000,12029,12260000000,,base_to_link1,link1_to_link2,link2_to_link3,-0.0770962811765834,-0.09096927021619461,-0.020102908119734586,-0.5040322343170778,-0.9338524250564125,-0.2604190853303938,1.2780923351947586,1.8419722780171286,0.4602681363917765
12261000000,12030,12261000000,,base_to_link1,link1_to_link2,link2_to_link3,-0.07759701587217904,-0.09189969692260558,-0.0203626507099548,-0.5007347060046353,-0.9304267709016895,-0.259742661374211,1.2799224506183695,1.8480725821602764,0.4622511398497307
12262000000,12031,12262000000,,base_to_link1,link1_to_link2,link2_to_link3,-0.07809444324118964,-0.09282660341568327,-0.02062168239587958,-0.4974273792154978,-0.926906557015534,-0.25903175636455755,1.2817098664800737,1.8540430953027593,0.4641925051403515
12263000000,12032,12263000000,,base_to_link1,link1_to_link2,link2_to_link3,-0.0785885539084088,-0.09374989702760761,-0.02087996934438774,-0.49411067722433694,-0.9232936752836528,-0.2582870182132745,1.2834549080283761,1.8598847735036772,0.466092539386564
12264000000,12033,12264000000,,base_to_link1,link1_to_link2,link2_to_link3,-0.07907933891863728,-0.09466948696905231,-0.02113747836551294,-0.49078502003691515,-0.9195900042125524,-0.2575090900788439,1.2851579014630423,1.8655985783665896,0.4679515514243652
12265000000,12034,12265000000,,base_to_link1,link1_to_link2,link2_to_link3,-0.07956678973340381,-0.09558528431575031,-0.021394176907672424,-0.48745082437798126,-0.9157974088543295,-0.2566986103437592,1.2868191739135633,1.8711854767883678,0.46976985173102714
12266000000,12035,12266000000,,base_to_link1,link1_to_link2,link2_to_link3,-0.08005089822766642,-0.0964972019949526,-0.021650033052874385,-0.48410850368324326,-0.9119177407312761,-0.2558562125985555,1.2884390533890162,1.8766464407929648,0.4715477523638115
12267000000,12036,12267000000,,base_to_link1,link1_to_link2,link2_to_link3,-0.0805316566865315,-0.0974051547718302,-0.021905015511904047,-0.4807584680921734,-0.9079528377637349,-0.2549825256235876,1.2900178687259514,1.8819824472912727,0.4732855668913607
12268000000,12037,12268000000,,base_to_link1,link1_to_link2,link2_to_link3,-0.08100905780193202,-0.09830905923580335,-0.022159093619502634,-0.4774011244391495,-0.9039045242011631,-0.25407817337388405,1.2915559495737576,1.8871944778901382,0.47498361032487124
12269000000,12038,12269000000,,base_to_link1,link1_to_link2,link2_to_link3,-0.08148309466932879,-0.09920883378680134,-0.022412237329523244,-0.47403687624892943,-0.8997746105540512,-0.25314377496253326,1.2930536263209929,1.8922835186846467,0.4766421990634019
12270000000,12039,12270000000,,base_to_link1,link1_to_link2,link2_to_link3,-0.08195376078439054,-0.10010439862146203,-0.02266441721007073,-0.4706661237290043,-0.8955648935305446,-0.25217994464544435,1.2945112300858956,1.897250560053254,0.478261650822959
12271000000,12040,12271000000,,base_to_link1,link1_to_link2,link2_to_link3,-0.08242105003967382,-0.10099567571926205,-0.0229156044386416,-0.46728926376677415,-0.8912771559732318,-0.2511872918094529,1.2959290926622673,1.9020965964611825,0.4798422845725221
12272000000,12041,12272000000,,base_to_link1,link1_to_link2,link2_to_link3,-0.08288495672129059,-0.1018825888286008,-0.02316577079722304,-0.46390668992179285,-0.8869131668019855,-0.2501664209525648,1.2973075464866697,1.9068226262542265,0.4813844204860527
12273000000,12042,12273000000,,base_to_link1,link1_to_link2,link2_to_link3,-0.08334547550559002,-0.10276506345280989,-0.02341488866741326,-0.46051879242686455,-0.8824746809529934,-0.24911793168110818,1.2986469245930592,1.911429651475178,0.4828883798532322
12274000000,12043,12274000000,,base_to_link1,link1_to_link2,link2_to_link3,-0.08380260145581708,-0.10364302683612348,-0.023662931025497436,-0.45712595818022633,-0.877963439328605,-0.24804241868692944,1.2999475605942061,1.9159186776510677,0.48435448505258194
12275000000,12044,12275000000,,base_to_link1,link1_to_link2,link2_to_link3,-0.08425633001878552,-0.10451640794959172,-0.02390987143753609,-0.4537285707456906,-0.8733811687413628,-0.246940471744576,1.3012097886255751,1.9202907136155292,0.48578305945840794
12276000000,12045,12276000000,,base_to_link1,link1_to_link2,link2_to_link3,-0.08470665702152758,-0.10538513747692857,-0.024155684054432136,-0.4503270103494319,-0.8687295818667543,-0.24581267569655363,1.302433943326648,1.9245467713128177,0.48717442740470895
12277000000,12046,12277000000,,base_to_link1,link1_to_link2,link2_to_link3,-0.08515357866796691,-0.10624914780035066,-0.024400343606987285,-0.44692165387901767,-0.8640103771951362,-0.24465961044264906,1.303620359784711,1.9286878655922752,0.4885289141151158
12278000000,12047,12278000000,,base_to_link1,link1_to_link2,link2_to_link3,-0.08559709153557549,-0.10710837298632381,-0.024643825400953112,-0.4435128748826618,-0.8592252389854788,-0.24348185093540897,1.3047693735250507,1.9327150140595362,0.48984684564337677
12279000000,12048,12279000000,,base_to_link1,link1_to_link2,link2_to_link3,-0.08603719257203402,-0.10796274877130596,-0.024886105312073248,-0.44010104356668606,-0.8543758372247378,-0.24227996716733302,1.305881320461912,1.9366292368433058,0.4911285488191147
12280000000,12049,12280000000,,base_to_link1,link1_to_link2,link2_to_link3,-0.08647387909188176,-0.10881221254741913,-0.025127159781123787,-0.43668652679697345,-0.8494638275865671,-0.2410545241655183,1.3069565368690228,1.940431556450907,0.49237435118993644
12281000000,12050,12281000000,,base_to_link1,link1_to_link2,link2_to_link3,-0.08690714877319117,-0.10965670334812128,-0.025366965808916397,-0.4332696880981614,-0.8444908513950419,-0.23980608197964493,1.307995359335803,1.9441229975556014,0.49358458097062624
12282000000,12051,12282000000,,base_to_link1,link1_to_link2,link2_to_link3,-0.08733699965421415,-0.11049616183379296,-0.02560550095135472,-0.42985088765553414,-0.8394585355843411,-0.23853519568942305,1.3089981247593423,1.9477045868549492,0.4947595669564329
12283000000,12052,12283000000,,base_to_link1,link1_to_link2,link2_to_link3,-0.08776343013004784,-0.11133053027734174,-0.025842743314417937,-0.42643048231242053,-0.8343684926731624,-0.23724241537845736,1.3099651702828008,1.9511773528430378,0.49589963852748
12284000000,12053,12284000000,,base_to_link1,link1_to_link2,link2_to_link3,-0.08818643894929679,-0.11215975254972843,-0.026078671549190524,-0.423008825575089,-0.8292223207266574,-0.23592828614763517,1.3108968332819648,1.9545423256859014,0.4970051255263205
12285000000,12054,12285000000,,base_to_link1,link1_to_link2,link2_to_link3,-0.08860602521072991,-0.11298377410551463,-0.026313264846852924,-0.41958626761064943,-0.8240216033338945,-0.234593348097351,1.3117934513286693,1.957800537000222,0.49807635825496516
12286000000,12055,12286000000,,base_to_link1,link1_to_link2,link2_to_link3,-0.08902218835995157,-0.11380254196833217,-0.026546502933691762,-0.4161631552516684,-0.8187679095752814,-0.23323813633589496,1.3126553621523869,1.9609530197317053,0.49911366738624924
12287000000,12056,12287000000,,base_to_link1,link1_to_link2,link2_to_link3,-0.08943492818606202,-0.11461600471637023,-0.026778366066102954,-0.41273983199516656,-0.8134627940035983,-0.23186318096768455,1.3134829036214988,1.9640008079331839,0.5001173839340098
12288000000,12057,12288000000,,base_to_link1,link1_to_link2,link2_to_link3,-0.08984424481832676,-0.11542411246781636,-0.027008835025575273,-0.409316638006259,-0.8081077966205369,-0.2304690070922205,1.3142764136995826,1.966944936638806,0.5010878391965414
12289000000,12058,12289000000,,base_to_link1,link1_to_link2,link2_to_link3,-0.09025013872284404,-0.1162268168662921,-0.027237891113698787,-0.4058939101199374,-0.8027044428559094,-0.22905613480720666,1.3150362304213283,1.9697864416738022,0.5020253646874169
12290000000,12059,12290000000,,base_to_link1,link1_to_link2,link2_to_link3,-0.09065261069922137,-0.1170240710662549,-0.027465516147150204,-0.4024719818436754,-0.7972542435516449,-0.22762507920245456,1.3157626918577756,1.9725263595050357,0.5029302921109609
12291000000,12060,12291000000,,base_to_link1,link1_to_link2,link2_to_link3,-0.09105166187725011,-0.11781582971840177,-0.02769169245269243,-0.39905118335905765,-0.7917586949462525,-0.2261763503615255,1.3164561360922908,1.9751657270627838,0.5038029532895258
12292000000,12061,12292000000,,base_to_link1,link1_to_link2,link2_to_link3,-0.0914472937135784,-0.11860204895505344,-0.02791640286215813,-0.3956318415246653,-0.7862192786622457,-0.22471045336046502,1.3171169011858699,1.977705581598045,0.5046436801282084
12293000000,12062,12293000000,,base_to_link1,link1_to_link2,link2_to_link3,-0.09183950798839291,-0.11938268637551896,-0.028139630707461727,-0.3922142798799255,-0.780637461693135,-0.2232278882738442,1.317745325142416,1.9801469605183242,0.5054528045492029
12294000000,12063,12294000000,,base_to_link1,link1_to_link2,link2_to_link3,-0.09222830680210059,-0.12015770103147627,-0.028361359815577636,-0.388798818646632,-0.7750146963982868,-0.22172915016696593,1.3183417458847642,1.982490901223204,0.5062306584708434
12295000000,12064,12295000000,,base_to_link1,link1_to_link2,link2_to_link3,-0.0926136925720229,-0.12092705341230481,-0.02858157450354515,-0.3853857747342484,-0.7693524204917229,-0.22021472910913698,1.318906501221817,1.984738440975591,0.5069775737241295
12296000000,12065,12296000000,,base_to_link1,link1_to_link2,link2_to_link3,-0.092995668029074,-0.12169070543045901,-0.0288002595734822,-0.38197546173934266,-0.7636520570410229,-0.218685110168502,1.3194399288282401,1.9868906167085183,0.507693882029912
12297000000,12066,12297000000,,base_to_link1,link1_to_link2,link2_to_link3,-0.09337423621446028,-0.12244862040680982,-0.02901740030756539,-0.37856818995147495,-0.757915014465275,-0.21714077341407612,1.31994236619557,1.9889484649211584,0.5083799149583956
12298000000,12067,12298000000,,base_to_link1,link1_to_link2,link2_to_link3,-0.09374940047636748,-0.12320076305599326,-0.029232982463056167,-0.3751642663568214,-0.7521426865305171,-0.2155821939288377,1.3204141506208347,1.9909130215016735,0.5090360038456704
12299000000,12068,12299000000,,base_to_link1,link1_to_link2,link2_to_link3,-0.09412116446667973,-0.12394709947176263,-0.029446992267312844,-0.37176399464082,-0.746336452354666,-0.21400984180651783,1.320855619161299,1.9927853215892002,0.5096624797906324
12300000000,12069,12300000000,,base_to_link1,link1_to_link2,link2_to_link3,-0.09448953213765243,-0.12468759711234778,-0.029659416412797235,-0.3683676751892215,-0.7404976764117464,-0.21242418215562153,1.3212671086339327,1.9945663994323029,0.5102596735913639
12301000000,12070,12301000000,,base_to_link1,link1_to_link2,link2_to_link3,-0.09485450773864734,-0.12542222478580367,-0.02987024205211153,-0.3649756050975485,-0.7346277085332784,-0.2108256751135147,1.3216489555362538,1.9962572882510363,0.5108279156903355
12302000000,12071,12302000000,,base_to_link1,link1_to_link2,link2_to_link3,-0.09521609581282142,-0.12615095263539455,-0.03007945679301738,-0.36158807816775246,-0.728727883921307,-0.20921477584206483,1.3220014960761493,1.9978590200811237,0.5113675361554332
12303000000,12072,12303000000,,base_to_link1,link1_to_link2,link2_to_link3,-0.0955743011938548,-0.12687375212495322,-0.030287048693479868,-0.3582053849174428,-0.7227995231527892,-0.20759193454386415,1.3223250660928723,1.9993726256646602,0.5118788646128407
12304000000,12073,12304000000,,base_to_link1,link1_to_link2,link2_to_link3,-0.09592912900265382,-0.12759059602429002,-0.030493006256707922,-0.3548278125797336,-0.7168439321947848,-0.20595759646213474,1.3226200010636922,2.0007991342801574,0.5123622302227986
12305000000,12074,12305000000,,base_to_link1,link1_to_link2,link2_to_link3,-0.09628058464408973,-0.12830145839456986,-0.0306973184262036,-0.35145564511038896,-0.7108624024147496,-0.20431220189439359,1.3228866360463432,2.002139573647676,0.5128179616269006
12306000000,12075,12306000000,,base_to_link1,link1_to_link2,link2_to_link3,-0.09662867380370521,-0.12900631457374967,-0.030899974580830936,-0.34808916318774946,-0.7048562105984386,-0.20265618619680237,1.3231253056822214,2.003394969751916,0.5132463869079091
12307000000,12076,12307000000,,base_to_link1,link1_to_link2,link2_to_link3,-0.0969734024444513,-0.1297051411620087,-0.031100964529870545,-0.34472864422017546,-0.6988266189652768,-0.20098997979379396,1.3233363441317585,2.0045663467582604,0.513647833560418
12308000000,12077,12308000000,,base_to_link1,link1_to_link2,link2_to_link3,-0.09731477680342415,-0.13039791600719308,-0.0313002785081169,-0.3413743623487777,-0.6927748751859147,-0.199314008193043,1.323520085072264,2.0056547268612377,0.514022628427619
12309000000,12078,12309000000,,base_to_link1,link1_to_link2,link2_to_link3,-0.09765280338859306,-0.1310846181902905,-0.03149790717095069,-0.3380265884493389,-0.6867022124069007,-0.1976286919850594,1.323676861665569,2.0066611301544244,0.5143710976953328
12310000000,12079,12310000000,,base_to_link1,link1_to_link2,link2_to_link3,-0.0979874889755461,-0.1317652280109387,-0.03169384158945032,-0.33468559013941435,-0.6806098492694345,-0.1959344468621823,1.3238070065166945,2.0075865745166244,0.5146935668182833
12311000000,12080,12311000000,,base_to_link1,link1_to_link2,link2_to_link3,-0.0983188406042288,-0.1324397269729305,-0.03188807324548559,-0.3313516317796508,-0.674498989935557,-0.19423168362554177,1.3239108516593387,2.008432075501922,0.5149903605107085
12312000000,12081,12312000000,,base_to_link1,link1_to_link2,link2_to_link3,-0.09864686557570224,-0.1331080977697665,-0.03208059402686292,-0.32802497448076656,-0.6683708241117611,-0.19252080820205486,1.3239887285164238,2.0091986461923854,0.5152618026799449
12313000000,12082,12313000000,,base_to_link1,link1_to_link2,link2_to_link3,-0.0989715714488888,-0.13377032427023305,-0.0322713962224368,-0.32470587610426976,-0.6622265270810206,-0.19080222164594562,1.3240409678874767,2.0098872971027433,0.5155082164297998
12314000000,12083,12314000000,,base_to_link1,link1_to_link2,link2_to_link3,-0.09929296603732496,-0.13442639150399938,-0.032460472517269245,-0.32139459126904635,-0.6560672597271969,-0.18907632016282527,1.3240678999039108,2.010499036062209,0.5157299239783159
12315000000,12084,12315000000,,base_to_link1,link1_to_link2,link2_to_link3,-0.09961105740593013,-0.1350762856472505,-0.03264781598778388,-0.3180913713552077,-0.6498941685690961,-0.18734349511579307,1.3240698540039142,2.011034868091153,0.5159272466577237
12316000000,12085,12316000000,,base_to_link1,link1_to_link2,link2_to_link3,-0.09992585386776831,-0.13571999400835733,-0.032833420096941346,-0.3147964645073963,-0.6437083857925442,-0.18560413304034085,1.324047158916375,2.011495795294107,0.5161005048610451
12317000000,12086,12317000000,,base_to_link1,link1_to_link2,link2_to_link3,-0.10023736398081873,-0.13635750501358057,-0.03301727868942361,-0.31151011563969955,-0.6375110292849314,-0.1838586156580423,1.3240001426216428,2.011882816754898,0.5162500180155497
12318000000,12087,12318000000,,base_to_link1,link1_to_link2,link2_to_link3,-0.10054559654474993,-0.136988808192803,-0.033199385986832475,-0.30823256643983815,-0.6313032026701861,-0.1821073198921408,1.32392913232836,2.0121969284285584,0.5163761045438617
12319000000,12088,12319000000,,base_to_link1,link1_to_link2,link2_to_link3,-0.1008505605976886,-0.13761389416530978,-0.03337973658291471,-0.3049640553738071,-0.6250859953470409,-0.18035061788276663,1.3238344544449985,2.0124391230281717,0.5164790818305327
12320000000,12089,12320000000,,base_to_link1,link1_to_link2,link2_to_link3,-0.10115226541302036,-0.1382327546255917,-0.033558325438783676,-0.3017048176907415,-0.6188604825276977,-0.17858887699953818,1.3237164345424561,2.0126103899317296,0.5165592662013108
12321000000,12090,12321000000,,base_to_link1,link1_to_link2,link2_to_link3,-0.10145072049615678,-0.13884538232920907,-0.033735147878169336,-0.2984550854254917,-0.6126277252798219,-0.17682245985846934,1.3235753973542748,2.01271171506433,0.5166169728721706
12322000000,12091,12322000000,,base_to_link1,link1_to_link2,link2_to_link3,-0.10174593558134681,-0.1394517710786909,-0.03391019958268249,-0.29521508740625807,-0.6063887705661256,-0.17505172433983185,1.3234116667107922,2.0127440808182735,0.5166525159305989
12323000000,12092,12323000000,,base_to_link1,link1_to_link2,link2_to_link3,-0.10203792062845629,-0.14005191570946263,-0.03408347658709321,-0.2919850492566289,-0.6001446512898749,-0.17327702360323616,1.3232255655518936,2.0127084659486303,0.5166662083028049
12324000000,12093,12324000000,,base_to_link1,link1_to_link2,link2_to_link3,-0.10232668581977755,-0.1406458120758396,-0.03425497527462529,-0.2887651934016644,-0.5938963863395097,-0.1714987061041524,1.3230174158630574,2.0126058454619713,0.5166583617210687
12325000000,12094,12325000000,,base_to_link1,link1_to_link2,link2_to_link3,-0.10261224155683557,-0.1412334570370577,-0.034424692372273746,-0.2855557390720538,-0.587644980634311,-0.16971711561304637,1.322787538673873,2.0124371905430465,0.5166292866930219
12326000000,12095,12326000000,,base_to_link1,link1_to_link2,link2_to_link3,-0.10289459845719406,-0.14181484844335035,-0.03459262494613835,-0.2823569023100945,-0.5813914251737062,-0.16793259123159932,1.3225362540227679,2.012203468453401,0.5165792924782584
12327000000,12096,12327000000,,base_to_link1,link1_to_link2,link2_to_link3,-0.10317376735127937,-0.14238998512208045,-0.034758770396766,-0.2791688959732776,-0.5751366970858991,-0.16614546740987501,1.322263880925285,2.01190564243932,0.5165086870579962
12328000000,12097,12328000000,,base_to_link1,link1_to_link2,link2_to_link3,-0.10344975927919187,-0.14295886686392034,-0.03492312645452156,-0.275991929740221,-0.5688817596779233,-0.1643560739684442,1.3219707373602978,2.0115446716491943,0.516417777097718
12329000000,12098,12329000000,,base_to_link1,link1_to_link2,link2_to_link3,-0.10372258548754054,-0.14352149440907436,-0.0350856911749835,-0.2728262101164899,-0.56262756248737,-0.16256473611705335,1.3216571402258999,2.0111215110442417,0.5163068679296301
12330000000,12099,12330000000,,base_to_link1,link1_to_link2,link2_to_link3,-0.10399225742626861,-0.14407786943357603,-0.03524646293434497,-0.2696719404377546,-0.5563750413382712,-0.16077177446808666,1.3213234053310496,2.0106371113043178,0.5161762635318138
12331000000,12100,12331000000,,base_to_link1,link1_to_link2,link2_to_link3,-0.1042587867454916,-0.1446279945356208,-0.035405440424836065,-0.2665293208773713,-0.5501251183930596,-0.15897750506188812,1.3209698473551477,2.0100924187664293,0.5160262664878854
12332000000,12101,12332000000,,base_to_link1,link1_to_link2,link2_to_link3,-0.10452218529234258,-0.1451718732219538,-0.03556262265017285,-0.2633985484517121,-0.5438787022086853,-0.1571822393872131,1.3205967798290532,2.0094883753245103,0.5158571779628514
12333000000,12102,12333000000,,base_to_link1,link1_to_link2,link2_to_link3,-0.10478246510782085,-0.14570950989434106,-0.035718008921034716,-0.260279817024117,-0.5376366877947553,-0.15538628439944502,1.320204515110838,2.0088259183492765,0.5156692976845553
12334000000,12103,12334000000,,base_to_link1,link1_to_link2,link2_to_link3,-0.10503963842363717,-0.14624090983606042,-0.035871598850532926,-0.2571733173118882,-0.5313999566717537,-0.15358994253979308,1.3197933643580195,2.0081059806373203,0.5154629239271804
12335000000,12104,12335000000,,base_to_link1,link1_to_link2,link2_to_link3,-0.10529371765908735,-0.1467660791984846,-0.0360233923497395,-0.25407923689307244,-0.5251693769289223,-0.15179351176264166,1.319363637492653,2.007329490296442,0.515238353457355
12336000000,12105,12336000000,,base_to_link1,link1_to_link2,link2_to_link3,-0.10554471541790278,-0.14728502498770357,-0.036173389623207264,-0.25099776021033304,-0.5189458032878417,-0.1499972855492293,1.3189156431986744,2.006497370704719,0.5149958815501365
12337000000,12106,12337000000,,base_to_link1,link1_to_link2,link2_to_link3,-0.10579264448513293,-0.14779775505122306,-0.03632159116452183,-0.24792906857867247,-0.5127300771617439,-0.14820155293396098,1.318449688867499,2.0056105404166633,0.5147358019356225
12338000000,12107,12338000000,,base_to_link1,link1_to_link2,link2_to_link3,-0.10603751782402249,-0.14830427806471835,-0.03646799775188203,-0.24487334019184948,-0.5065230267195445,-0.14640659852680205,1.3179660805990017,2.004669913107433,0.5144584067867346
12339000000,12108,12339000000,,base_to_link1,link1_to_link2,link2_to_link3,-0.10627934857289567,-0.14880460351885194,-0.03661261044368391,-0.24183075012767144,-0.5003254669503787,-0.14461270253296876,1.3174651231651373,2.003676397496263,0.5141639867037291
12340000000,12109,12340000000,,base_to_link1,link1_to_link2,link2_to_link3,-0.10651815004203691,-0.14929874170615864,-0.03675543057416508,-0.23880147035535637,-0.49413819972656053,-0.14282014078136696,1.3169471199860643,2.002630897279409,0.5138528306738698
12341000000,12110,12341000000,,base_to_link1,link1_to_link2,link2_to_link3,-0.10675393571061065,-0.14978670370800362,-0.03689645974901534,-0.23578566974245757,-0.4879620138737999,-0.14102918473688297,1.316412373095571,2.001534311067297,0.513525226088543
12342000000,12111,12342000000,,base_to_link1,link1_to_link2,link2_to_link3,-0.10698671922354208,-0.15026850138158654,-0.03703569984107258,-0.23278351406175182,-0.48179768523331057,-0.13924010153848132,1.3158611831495228,2.000387532327729,0.5131814586658854
12343000000,12112,12343000000,,base_to_link1,link1_to_link2,link2_to_link3,-0.10721651438845292,-0.15074414734704167,-0.037173152985992,-0.2297951659984358,-0.47564597673500797,-0.13745315400834007,1.315293849355754,1.9991914493028804,0.5128218124932744
12344000000,12113,12344000000,,base_to_link1,link1_to_link2,link2_to_link3,-0.10744333517255811,-0.15121365497458594,-0.037308821577973994,-0.2268207851558124,-0.469507638463618,-0.13566860068581843,1.314710669498657,1.9979469449769902,0.5124465699576384
12345000000,12114,12345000000,,base_to_link1,link1_to_link2,link2_to_link3,-0.10766719569961225,-0.15167703837174873,-0.0374427082654849,-0.22386052806594947,-0.4633834077300643,-0.13388669584562374,1.3141119398692278,1.9966548969965527,0.5120560117616135
12346000000,12115,12346000000,,base_to_link1,link1_to_link2,link2_to_link3,-0.10788811024682943,-0.15213431237066555,-0.03757481594704348,-0.22091454819494755,-0.4572740091412086,-0.13210768952938523,1.3134979552844255,1.9953161776250645,0.5116504168739004
12347000000,12116,12347000000,,base_to_link1,link1_to_link2,link2_to_link3,-0.10810609324184028,-0.15258549251544995,-0.037705147766978975,-0.21798299595076856,-0.4511801546748407,-0.13033182755969763,1.3128690090298782,1.9939316536806353,0.5112300625531041
12348000000,12117,12348000000,,base_to_link1,link1_to_link2,link2_to_link3,-0.10832115925962782,-0.15303059504963468,-0.037833707111276205,-0.21506601869265743,-0.4451025437486011,-0.12855935157807508,1.3122253928669085,1.9925021864885784,0.5107952242771381
12349000000,12118,12349000000,,base_to_link1,link1_to_link2,link2_to_link3,-0.10853332301949337,-0.15346963690368565,-0.03796049760337805,-0.21216376073800355,-0.43904186329838707,-0.12679049905580903,1.3115673969807218,1.9910286318258001,0.5103461757889597
12350000000,12119,12350000000,,base_to_link1,link1_to_link2,link2_to_link3,-0.10874259938202435,-0.1539026356825941,-0.03808552310007851,-0.20927636337254085,-0.4329987878479159,-0.12502550333492113,1.3108953099804084,1.9895118398694565,0.5098831890121986
12351000000,12120,12351000000,,base_to_link1,link1_to_link2,link2_to_link3,-0.10894900334607094,-0.15432960965354336,-0.03820878768739622,-0.20640396485683268,-0.4269739795888467,-0.12326459363984471,1.310209418870539,1.9879526551517093,0.5094065341009156
12352000000,12121,12352000000,,base_to_link1,link1_to_link2,link2_to_link3,-0.10915255004572799,-0.1547505777336502,-0.03833029567648172,-0.2035467004363067,-0.42096808845487593,-0.12150799511075289,1.3095100090299518,1.9863519165116625,0.5089164793790271
12353000000,12122,12353000000,,base_to_link1,link1_to_link2,link2_to_link3,-0.10935325474732949,-0.1551655594777861,-0.03845005159958159,-0.2007047023509972,-0.41498175219722244,-0.1197559288330271,1.3087973641870352,1.9847104570480334,0.508413291333353
12354000000,12123,12354000000,,base_to_link1,link1_to_link2,link2_to_link3,-0.10955113284645179,-0.15557457506646433,-0.03856806020598125,-0.19787809984318883,-0.4090155964661499,-0.11800861185304784,1.3080717664022392,1.983029104077939,0.507897234630324
12355000000,12124,12355000000,,base_to_link1,link1_to_link2,link2_to_link3,-0.10974619986492584,-0.15597764529383173,-0.03868432645801345,-0.195067019168079,-0.4030702348868212,-0.11626625721452544,1.3073334960471197,1.9813086790821173,0.5073685720543085
12356000000,12125,12356000000,,base_to_link1,link1_to_link2,link2_to_link3,-0.10993847144786173,-0.15637479155571032,-0.03879885552707396,-0.1922715836039629,-0.39714626913889234,-0.11452907398125145,1.3065828317834678,1.9795499976902633,0.5068275645336375
12357000000,12126,12357000000,,base_to_link1,link1_to_link2,link2_to_link3,-0.11012796336067865,-0.15676603583774185,-0.0389116527896709,-0.1894919134605703,-0.391244289037347,-0.11279726726386963,1.3058200505461135,1.9777538696117862,0.5062744711080747
12358000000,12127,12358000000,,base_to_link1,link1_to_link2,link2_to_link3,-0.11031469148615258,-0.1571514007035928,-0.039022723823495475,-0.1867281260908591,-0.38536487261241187,-0.11107103824801273,1.3050454275186747,1.975921098620872,0.5057095489232664
12359000000,12128,12359000000,,base_to_link1,link1_to_link2,link2_to_link3,-0.11049867182145867,-0.15753090928326063,-0.039132074403531725,-0.18398033589983667,-0.3795085861913515,-0.10935058422170846,1.304259236121915,1.9740524824995085,0.505133053212966
12360000000,12129,12360000000,,base_to_link1,link1_to_link2,link2_to_link3,-0.11067992047524555,-0.15790458526144757,-0.039239710498175207,-0.1812486543573247,-0.37367598447974576,-0.10763609860180756,1.303461747978952,1.9721488130223668,0.5045452372994089
12361000000,12130,12361000000,,base_to_link1,link1_to_link2,link2_to_link3,-0.11085845366470437,-0.1582724528660231,-0.03934563826539961,-0.1785331900075044,-0.36786761064395845,-0.10592777096511824,1.3026532329180882,1.9702108759085935,0.5039463525635743
12362000000,12131,12362000000,,base_to_link1,link1_to_link2,link2_to_link3,-0.11103428771265911,-0.1586345368565647,-0.03944986404894468,-0.17583404848052542,-0.36208399639455985,-0.10422578707281782,1.3018339589382786,1.9682394507957992,0.5033366484550028
12363000000,12132,12363000000,,base_to_link1,link1_to_link2,link2_to_link3,-0.11120743904465513,-0.15899086251299455,-0.039552394374514854,-0.17315133250250847,-0.3563256620712794,-0.10253032889656682,1.3010041922014575,1.9662353112041555,0.5027163724751772
12364000000,12133,12364000000,,base_to_link1,link1_to_link2,link2_to_link3,-0.11137792418607972,-0.15934145562428004,-0.039653235946041754,-0.17048514191081,-0.3505931167233965,-0.10084157465593596,1.3001641970017495,1.9641992245192064,0.5020857701503494
