%time,field.header.seq,field.header.stamp,field.header.frame_id,field.name0,field.name1,field.name2,field.position0,field.position1,field.position2,field.velocity0,field.velocity1,field.velocity2,field.effort0,field.effort1,field.effort2
21062000000,20822,21055000000,,base_to_link1,link1_to_link2,link2_to_link3,0.0,0.0,0.0,2.8595407994009392e-15,2.0880595296151493e-14,1.723858952152487e-15,0.0,0.0,0.0
21062000000,20823,21056000000,,base_to_link1,link1_to_link2,link2_to_link3,-9.041727056668947e-05,1.464532251027606e-06,-1.6449846391708434e-06,-0.09041727041005077,0.0014643310854984797,-0.001644983957392502,0.0,0.0,0.0
21062000000,20824,21057000000,,base_to_link1,link1_to_link2,link2_to_link3,-0.0002576635632536295,-2.5945997359499984e-06,3.4672647410971535e-06,-0.1672462929614136,-0.00405856369072725,0.0051122461139622415,0.09132153368962694,-0.0014791790380701332,0.0016647260998255327
21062000000,20825,21058000000,,base_to_link1,link1_to_link2,link2_to_link3,-0.0004912141669741743,-1.6119245921153436e-05,1.7534986482381498e-05,-0.23355060486816637,-0.013524941662115994,0.01406772392553607,0.16982327640031014,0.004085079114404589,-0.005153858379441265
21062000000,20826,21059000000,,base_to_link1,link1_to_link2,link2_to_link3,-0.0007824619076259864,-4.1569158024223896e-05,4.019099981800167e-05,-0.2912477427628791,-0.02544994840498496,0.022656013783569184,0.23846358468528736,0.013685855893728378,-0.014278160936339507
21062000000,20827,21060000000,,base_to_link1,link1_to_link2,link2_to_link3,-0.0011241373235542085,-8.062816918386062e-05,7.00999120821777e-05,-0.3416754192015287,-0.03905900719933662,0.029908912304549624,0.29907398148498043,0.02586566250178413,-0.023138364881702594
21062000000,20828,21061000000,,base_to_link1,link1_to_link2,link2_to_link3,-0.0015099897636208226,-0.00013453709838184835,0.0001056497931859468,-0.3858524446914765,-0.05390890550922414,0.03554988123592538,0.3529195350579961,0.03986543229811595,-0.03075024085734064
21062000000,20829,21062000000,,base_to_link1,link1_to_link2,link2_to_link3,-0.001934592714194494,-0.00020425382564415173,0.0001452414458489315,-0.4246029566666079,-0.06971668808170625,0.039591653055067906,0.40095659358681796,0.05525457416554521,-0.03681791391997214
21063000000,20830,21063000000,,base_to_link1,link1_to_link2,link2_to_link3,-0.0023932110611131208,-0.00029053561410652406,0.00018740060573918527,-0.45861835454266736,-0.08628173588153212,0.04215916059951615,0.4439550681923262,0.07175974375630954,-0.0413349305525894
21064000000,20831,21064000000,,base_to_link1,link1_to_link2,link2_to_link3,-0.002881701714995799,-0.0003939851958962848,0.00023081310517358844,-0.48849066304573313,-0.10344951699320112,0.04341250051165793,0.4825590412175288,0.08918791337661632,-0.044408535099147245
21065000000,20832,21065000000,,base_to_link1,link1_to_link2,link2_to_link3,-0.003396434092563183,-0.000515079514955552,0.00027432751304967695,-0.5147323882420415,-0.12109424309330924,0.043514409360849826,0.5173191364221222,0.1073905965070982,-0.046183055449614666
21066000000,20833,21066000000,,base_to_link1,link1_to_link2,link2_to_link3,-0.003934223812288806,-0.0006541897439946709,0.00031694490061529024,-0.5377897318560316,-0.13911014332466112,0.04261738946125575,0.5487115803165943,0.12624679204671238,-0.04680741111332612
21067000000,20834,21067000000,,base_to_link1,link1_to_link2,link2_to_link3,-0.004492276110719118,-0.0008115965293393756,0.0003578042822640626,-0.5580523119462047,-0.1574066916280577,0.04085938392167539,0.577150753895902,0.14565445850669914,-0.04642211639853887
21068000000,20835,21068000000,,base_to_link1,link1_to_link2,link2_to_link3,-0.005068136949207158,-0.000987502322225886,0.0003961673615586747,-0.5758608533127707,-0.1759056929751156,0.038363081878729804,0.6029983478610043,0.16552589426226144,-0.04515478086576545
21069000000,20836,21069000000,,base_to_link1,link1_to_link2,link2_to_link3,-0.0056596504878587695,-0.0011820417209049694,0.0004314040503139438,-0.5915135547020578,-0.1945392942613667,0.03523669155889947,0.6265705644405626,0.18578494723525443,-0.04311923163050215
21070000000,20837,21070000000,,base_to_link1,link1_to_link2,link2_to_link3,-0.006264921970908333,-0.0013952903242673287,0.0004629792842782976,-0.6052715002380407,-0.21324849596050313,0.0315752368694846,0.6481440596411375,0.20636512905633908,-0.04041611276027265
21071000000,20838,21071000000,,base_to_link1,link1_to_link2,link2_to_link3,-0.0068822852781149635,-0.0016272723966919145,0.0004904412520350121,-0.6173633254449157,-0.23198196338351376,0.02746197062148395,0.6679609837915559,0.2272082150635629,-0.037134023756213885
21072000000,20839,21072000000,,base_to_link1,link1_to_link2,link2_to_link3,-0.007510274530536876,-0.0018779675429572151,0.0005134109854898483,-0.6279892716276562,-0.25069503674221066,0.0229697361134783,0.6862333233059681,0.24826313212243195,-0.033350791602907194
21073000000,20840,21073000000,,base_to_link1,link1_to_link2,link2_to_link3,-0.008147599233209846,-0.0021473165385321735,0.000531573197976698,-0.6373247227636852,-0.2693488865545926,0.018162214747907968,0.703146671319999,0.2694850353933428,-0.029134707513472434
21074000000,20841,21074000000,,base_to_link1,link1_to_link2,link2_to_link3,-0.00879312250943265,-0.002435226429958526,0.0005446682397032276,-0.6455232971204018,-0.2879097837177053,0.013095043367015502,0.7188635161970198,0.29083452197528864,-0.024545664668526073
21075000000,20842,21075000000,,base_to_link1,link1_to_link2,link2_to_link3,-0.009445842040202379,-0.0027415750002441897,0.0005524850429026174,-0.6527195524022292,-0.3063484645466136,0.007816803956951723,0.7335261156315909,0.312276951967376,-0.01963617907716409
21076000000,20843,21076000000,,base_to_link1,link1_to_link2,link2_to_link3,-0.010104873371872714,-0.0030662146800795043,0.0005548549388656454,-0.6590313539668575,-0.3246395765815909,0.002369895524566401,0.7472590113282545,0.33378185810454447,-0.014452294673459737
21077000000,20844,21077000000,,base_to_link1,link1_to_link2,link2_to_link3,-0.010769435297607544,-0.003408975974472206,0.0005516462409040912,-0.66456194863082,-0.3427611940293282,-0.0032086999749673106,0.7601712304189344,0.35532243066722846,-0.009034381043593286
21078000000,20845,21078000000,,base_to_link1,link1_to_link2,link2_to_link3,-0.011438837055067097,-0.0037696704653287227,0.0005427594992397644,-0.6694017809005869,-0.3606943936833703,-0.00888674573779602,0.772358213176076,0.37687506714451696,-0.003417834389713276
21079000000,20846,21079000000,,base_to_link1,link1_to_link2,link2_to_link3,-0.012112467114862469,-0.0041480934426791904,0.0005281233448535261,-0.6736300837190199,-0.3784228835852387,-0.014636161140307635,0.7839035013124499,0.39841897818736266,0.0023663074535319895
21080000000,20847,21080000000,,base_to_link1,link1_to_link2,link2_to_link3,-0.012789783362253004,-0.004544026210679952,0.0005076908495098564,-0.6773162717512184,-0.3959326777958478,-0.0204325056206624,0.7948802167133365,0.4199358425482609,0.008290825904733536
21081000000,20848,21081000000,,base_to_link1,link1_to_link2,link2_to_link3,-0.01347030449925235,-0.004957238108722173,0.0004814363379601616,-0.6805211617495158,-0.4132118114909446,-0.026254526533808664,0.8053523565657685,0.4414095049047733,0.014331849115439374
21082000000,20849,21082000000,,base_to_link1,link1_to_link2,link2_to_link3,-0.014153602515598607,-0.005387488282942776,0.0004493525963376044,-0.6832980414427381,-0.4302500913753676,-0.03208376306133881,0.8153759278490711,0.462825711164763,0.020468438023722932
21083000000,20850,21083000000,,base_to_link1,link1_to_link2,link2_to_link3,-0.01483929609596224,-0.005834527239067633,0.0004114484276662722,-0.6856936057653874,-0.4470388770052705,-0.037904199280669126,0.82499994096196,0.4841718765736347,0.026682223643459686
21084000000,20851,21084000000,,base_to_link1,link1_to_link2,link2_to_link3,-0.015527044847171823,-0.006298098203648017,0.0003677465116496137,-0.6877487768823847,-0.46357088917543904,-0.04370196032975443,0.8342672800790691,0.5054368825663756,0.03295708926786295
21085000000,20852,21085000000,,base_to_link1,link1_to_link2,link2_to_link3,-0.016216544243709663,-0.006777938317335419,0.0003182815314630716,-0.6894994224480432,-0.4798400419707857,-0.04946504642722782,0.8432154654819614,0.5266108987659108,0.03927889185887755
21086000000,20853,21086000000,,base_to_link1,link1_to_link2,link2_to_link3,-0.01690752120234329,-0.007273779680880388,0.00026309853609696177,-0.6909769847503723,-0.49584129547573874,-0.05518310026039114,0.8518773213198414,0.5476852269481198,0.04563521750946818
21087000000,20854,21087000000,,base_to_link1,link1_to_link2,link2_to_link3,-0.01759973020797112,-0.007785350271654501,0.00020225151556196863,-0.6922090319242936,-0.5115705262983937,-0.0608472043734265,0.8602815605231663,0.5686521642208172,0.05201516553489312
21088000000,20855,21088000000,,base_to_link1,link1_to_link2,link2_to_link3,-0.018292949922900092,-0.00831237474520119,0.00013580219874853583,-0.6932197413767269,-0.5270244126103677,-0.0664497078439944,0.8684532973038566,0.5895048827079743,0.058409152698680786
21089000000,20856,21089000000,,base_to_link1,link1_to_link2,link2_to_link3,-0.01898698022291434,-0.008854575128441233,6.381944825406549e-05,-0.6940303265933496,-0.5422003257798059,-0.07198409543769102,0.8764144967042105,0.6102373225907622,0.0648087049766829
21090000000,20857,21090000000,,base_to_link1,link1_to_link2,link2_to_link3,-0.019681639642383786,-0.009411671341228889,-1.3640048162955054e-05,-0.6946594461530774,-0.5570961587381685,-0.07744508239027736,0.8841843717698517,0.6308440906916457,0.07120586784420582
21091000000,20858,21091000000,,base_to_link1,link1_to_link2,link2_to_link3,-0.020376761632812546,-0.009983384844349352,-9.644966413091538e-05,-0.6951220172023791,-0.5717134524287183,-0.08281981579734787,0.8917797670593862,0.6513202940384755,0.07761214136380844
21092000000,20859,21092000000,,base_to_link1,link1_to_link2,link2_to_link3,-0.02107219830264384,-0.010569427424694133,-0.00018457635526658578,-0.6954366966729872,-0.586042532920267,-0.08812749522759067,0.8992139346846209,0.6716647027873324,0.08395607275602787
21093000000,20860,21093000000,,base_to_link1,link1_to_link2,link2_to_link3,-0.021767809487311496,-0.011169519629850022,-0.0002779163555395314,-0.6956112115591561,-0.6000921609649995,-0.0933402983748155,0.9065040529837719,0.6918647752425225,0.09033085279372126
21094000000,20861,21094000000,,base_to_link1,link1_to_link2,link2_to_link3,-0.022463468064014336,-0.01178337828719922,-0.00037638069252921014,-0.6956586036318303,-0.6138586163283349,-0.09846449392067436,0.9136564474762955,0.711926491624819,0.09666451985062739
21095000000,20862,21095000000,,base_to_link1,link1_to_link2,link2_to_link3,-0.023159056655305932,-0.012410720325211066,-0.0004798784629578279,-0.6955886182414942,-0.6273420001033837,-0.10349786883169698,0.920682888746573,0.7318433137699071,0.10297080499192914
21096000000,20863,21096000000,,base_to_link1,link1_to_link2,link2_to_link3,-0.023854466427483345,-0.013051263124700618,-0.0005883168523244109,-0.6954097991352044,-0.6405427646302648,-0.10843845834204968,0.9275919483049002,0.7516125255329997,0.10924669155447453
21097000000,20864,21097000000,,base_to_link1,link1_to_link2,link2_to_link3,-0.02454959607902829,-0.01370472475551221,-0.0007016014992728969,-0.6951296784946349,-0.6534615989538173,-0.11328469938846708,0.9343910813789191,0.7712317662687251,0.11548915948169113
21098000000,20865,21098000000,,base_to_link1,link1_to_link2,link2_to_link3,-0.025244350956082684,-0.01437082418223401,-0.0008196368438628809,-0.6947549039873668,-0.6660993978190576,-0.1180353870918257,0.94108680685798,0.7906989186236362,0.12169553442847528
21099000000,20866,21099000000,,base_to_link1,link1_to_link2,link2_to_link3,-0.025938642276422286,-0.015049281448022533,-0.0009423264297705458,-0.694291347241601,-0.6784572397912889,-0.12268962220570423,0.9476848254889275,0.810012079625245,0.1278634758418969
21100000000,20867,21100000000,,base_to_link1,link1_to_link2,link2_to_link3,-0.02663238644918664,-0.01573981783835432,-0.0010695731642247353,-0.6937441996280008,-0.6905363671952529,-0.12724676682786729,0.9541901206198085,0.8291695406313017,0.13399093451689953
21101000000,20868,21101000000,,base_to_link1,link1_to_link2,link2_to_link3,-0.027325504479300378,-0.016442156026140076,-0.001201279542373257,-0.693118056924414,-0.7023381674649304,-0.13170640806263945,0.9606070471586541,0.8481697688957206,0.14007611345003856
21102000000,20869,21102000000,,base_to_link1,link1_to_link2,link2_to_link3,-0.02801792144642512,-0.017156020199817767,-0.001337347841626979,-0.6924169938783932,-0.7138641561353823,-0.1360683277085878,0.9669394103136536,0.8670113903835741,0.14611743496169546
21103000000,20870,21103000000,,base_to_link1,link1_to_link2,link2_to_link3,-0.02870956604943764,-0.017881136176183254,-0.001477680290479455,-0.6916446296960378,-0.7251159615556845,-0.1403324765419025,0.9731905349173526,0.8856931740324867,0.15211351300578216
21104000000,20871,21104000000,,base_to_link1,link1_to_link2,link2_to_link3,-0.029400370208295,-0.01861723149958383,-0.001622179215241104,-0.690804185463955,-0.7360953112878241,-0.144498952192468,0.9793633264013047,0.9042140176201128,0.15806312967105624
21105000000,20872,21105000000,,base_to_link1,link1_to_link2,link2_to_link3,-0.030090268716241653,-0.019364035529094714,-0.0017707471677024245,-0.6898985344670008,-0.746804020055087,-0.1485679800044588,0.9854603242049276,0.9225729351207075,0.16396521485658433
21106000000,20873,21106000000,,base_to_link1,link1_to_link2,link2_to_link3,-0.030779198936063068,-0.020121279515037394,-0.0019232870361296506,-0.6889302462476242,-0.7572439791043463,-0.15253989636945775,0.9914837486424006,0.9407690455616526,0.1698188287329592
21107000000,20874,21107000000,,base_to_link1,link1_to_link2,link2_to_link3,-0.031467100534911197,-0.02088869666611881,-0.0020797021417617856,-0.687901625173954,-0.7674171468258119,-0.1564151341909502,0.9974355419143148,0.9588015631323904,0.17562314640702778
21108000000,20875,21108000000,,base_to_link1,link1_to_link2,link2_to_link3,-0.03215391525287359,-0.021666022208321145,-0.0022398963225764845,-0.6868147441804434,-0.7773255404939137,-0.1601942101627889,1.0033174040300443,0.9766697884786089,0.18137744458166405
21109000000,20876,21109000000,,base_to_link1,link1_to_link2,link2_to_link3,-0.03283958670105491,-0.022452993436508528,-0.0024037740059608126,-0.6856714742859685,-0.7869712289862294,-0.16387771365072012,1.0091308242391843,0.9943731010437569,0.18708108983032695
21110000000,20877,21110000000,,base_to_link1,link1_to_link2,link2_to_link3,-0.0335240601854796,-0.02324934975961046,-0.002571240271613817,-0.6844735104065556,-0.7963563263709891,-0.1674662969469196,1.014877108526631,1.0119109523041163,0.19273352837457397
21111000000,20878,21111000000,,base_to_link1,link1_to_link2,link2_to_link3,-0.034207282553550655,-0.024054832740156407,-0.002742200905956338,-0.6832223939255044,-0.8054829862508718,-0.17096066674723887,1.020557403674425,1.0292828597994443,0.19833427707135817
21112000000,20879,21112000000,,base_to_link1,link1_to_link2,link2_to_link3,-0.03488920206024915,-0.02486918612882949,-0.002916562449046367,-0.6819195324210368,-0.8143533967761718,-0.1743615766724813,1.0261727182840603,1.046488401881658,0.20388291557389052
21113000000,20880,21113000000,,base_to_link1,link1_to_link2,link2_to_link3,-0.03556976825157676,-0.02569215589460594,-0.0030942322349591933,-0.680566216909424,-0.8229697762387178,-0.17766982072755488,1.0317239411805401,1.063527213081655,0.20937907940092834
21114000000,20881,21114000000,,base_to_link1,link1_to_link2,link2_to_link3,-0.036248931863042344,-0.02652349025100076,-0.003275118426440571,-0.6791636369052273,-0.8313343691808379,-0.1808862275647859,1.0372118574911902,1.0803989799986795,0.2148224538869143
21115000000,20882,21115000000,,base_to_link1,link1_to_link2,link2_to_link3,-0.036926644731334335,-0.02736293967888681,-0.003459130044509706,-0.6777128935786547,-0.8394494429544909,-0.18401165545510567,1.042637162675678,1.0971034376712492,0.22021276887166855
21116000000,20883,21116000000,,base_to_link1,link1_to_link2,link2_to_link3,-0.03760285971744182,-0.028210256946240797,-0.003646176993692407,-0.6762150112406232,-0.847317284668694,-0.18704698789329988,1.0480004748297371,1.1136403663810213,0.2255497940063005
21117000000,20884,21117000000,,base_to_link1,link1_to_link2,link2_to_link3,-0.038277530639836854,-0.029065197125212272,-0.0038361700833728918,-0.67467094736779,-0.8549401984905646,-0.18999312973096516,1.0533023453660202,1.1300095887794417,0.2308333346870522
21118000000,20885,21118000000,,base_to_link1,link1_to_link2,link2_to_link3,-0.03895061221637519,-0.02992751760677148,-0.004029021045772296,-0.6730816013476336,-0.8623205032426579,-0.1928510037987704,1.0585432684081664,1.1462109673837704,0.23606322843108513
21119000000,20886,21119000000,,base_to_link1,link1_to_link2,link2_to_link3,-0.03962206001384061,-0.030796978113232676,-0.004224642550964219,-0.6714478221047636,-0.8694605302695461,-0.19562154794100373,1.0637236889290653,1.1622444023047032,0.24123934171984368
21120000000,20887,21120000000,,base_to_link1,link1_to_link2,link2_to_link3,-0.04029183040412221,-0.03167334070888028,-0.0044229482192790215,-0.6697704147455965,-0.8763626215375611,-0.19830571241605754,1.0688440098908152,1.178109829249414,0.24636156721721614
21121000000,20888,21121000000,,base_to_link1,link1_to_link2,link2_to_link3,-0.04095988052618438,-0.03255636980888266,-0.004623852631459258,-0.6680501463504203,-0.8830291279352407,-0.20090445762527487,1.0739045984402154,1.1938072177330104,0.25142982130809216
21122000000,20889,21122000000,,base_to_link1,link1_to_link2,link2_to_link3,-0.041626168253088736,-0.03344583218671371,-0.004827271336784733,-0.6662877510103125,-0.8894624077596736,-0.20341875210635452,1.0789057913219338,1.2093365694576117,0.25644404197232046
21123000000,20890,21123000000,,base_to_link1,link1_to_link2,link2_to_link3,-0.04229065216338057,-0.03434149698018718,-0.005033120859474494,-0.6644839342122829,-0.8956648253540427,-0.2058495707916399,1.083847899601419,1.224697916896786,0.26140418685280226
21124000000,20891,21124000000,,base_to_link1,link1_to_link2,link2_to_link3,-0.04295329151629801,-0.03524313569628479,-0.005241318703534503,-0.6626393766481885,-0.9016387498886106,-0.20819789346576267,1.0887312127439783,1.239891321970921,0.26631023161022394
21125000000,20892,21125000000,,base_to_link1,link1_to_link2,link2_to_link3,-0.0436140462302852,-0.03615052221488835,-0.005451783356264173,-0.6607547375244517,-0.9073865542600476,-0.2104647034225018,1.0935560021902715,1.2549168748917294,0.2711621684278967
21126000000,20893,21126000000,,base_to_link1,link1_to_link2,link2_to_link3,-0.04427287686437609,-0.03706343279151181,-0.005664434290594045,-0.6588306574321764,-0.9129106140974778,-0.21265098628550272,1.098322524446124,1.2697746931059308,0.27596000471366877
21127000000,20894,21127000000,,base_to_link1,link1_to_link2,link2_to_link3,-0.04492974460207044,-0.037981646059129126,-0.005879191966364772,-0.656867760835832,-0.9182133068651644,-0.21475772896678313,1.103031023767599,1.2844649203248582,0.2807037619601206
21128000000,20895,21128000000,,base_to_link1,link1_to_link2,link2_to_link3,-0.04558461123735391,-0.038904943029201,-0.00609597783071969,-0.6548666582242789,-0.9232970110444318,-0.2167859187612503,1.1076817344926102,1.2989877256409486,0.2853934747021905
21129000000,20896,21129000000,,base_to_link1,link1_to_link2,link2_to_link3,-0.046237439162595706,-0.039833107091939546,-0.006314714317673165,-0.6528279479737431,-0.9281641053911193,-0.21873654254510866,1.1122748830457954,1.3133433027392523,0.29002918963647134
21130000000,20897,21130000000,,base_to_link1,link1_to_link2,link2_to_link3,-0.04688819135802191,-0.04076592401591039,-0.006535324847007473,-0.6507522179519505,-0.9328169682536602,-0.22061058607932438,1.1168106896957017,1.3275318691404014,0.2946109647927873
21131000000,20898,21131000000,,base_to_link1,link1_to_link2,link2_to_link3,-0.04753683138261344,-0.041703181946998846,-0.006757733822531975,-0.6486400469035941,-0.9372579769507885,-0.2224090333898079,1.1212893700257347,1.3415536655364273,0.2991388688504799
21132000000,20899,21132000000,,base_to_link1,link1_to_link2,link2_to_link3,-0.0481833233661515,-0.04264467140679695,-0.006981866629805822,-0.64649200563678,-0.9414895071967875,-0.22413286622766682,1.1257111362683543,1.3554089551468649,0.30361298048078966
21133000000,20900,21133000000,,base_to_link1,link1_to_link2,link2_to_link3,-0.04882763200231288,-0.04359018529048608,-0.007207649633395263,-0.6443086580454399,-0.9455139325716027,-0.22578306359495692,1.1300761983736276,1.3690980231259053,0.30803338778405076
21134000000,20901,21134000000,,base_to_link1,link1_to_link2,link2_to_link3,-0.0494697225426286,-0.04453951886419727,-0.007435010173699297,-0.6420905619812837,-0.9493336240285127,-0.22736060132569436,1.1343847649905718,1.382621176039112,0.312400187792352
21135000000,20902,21135000000,,base_to_link1,link1_to_link2,link2_to_link3,-0.05010956079118145,-0.04549246976192922,-0.007663876563420047,-0.6398382699972704,-0.9529509494374028,-0.2288664517186666,1.1386370442706086,1.3959787413171436,0.31671348600076615
21136000000,20903,21136000000,,base_to_link1,link1_to_link2,link2_to_link3,-0.05074711309994129,-0.04644883798204891,-0.007894178083693859,-0.6375523299797671,-0.9563682731580887,-0.23030158321164662,1.142833244554056,1.409171066784991,0.32097339597069496
21137000000,20904,21137000000,,base_to_link1,link1_to_link2,link2_to_link3,-0.05138234636462968,-0.047408425883358696,-0.008125844979959496,-0.6352332856868753,-0.9595879556377627,-0.23166696010315457,1.1469735749617427,1.4221985202119032,0.3251800389451268
21138000000,20905,21138000000,,base_to_link1,link1_to_link2,link2_to_link3,-0.05201522802105529,-0.048371038180836656,-0.008358808457552769,-0.6328816771963129,-0.9626123530381735,-0.23296354229214866,1.1510582458835497,1.4350614888409874,0.32933354353711863
21139000000,20906,21139000000,,base_to_link1,link1_to_link2,link2_to_link3,-0.05264572604179918,-0.04933648194096829,-0.008593000677102225,-0.6304980412849889,-0.9654438168773215,-0.23419228506524692,1.1550874694130417,1.4477603790221198,0.3334340454043321
21140000000,20907,21140000000,,base_to_link1,link1_to_link2,link2_to_link3,-0.05327380893322875,-0.050304566576783394,-0.008828354749702783,-0.6280829117422269,-0.9680846936971146,-0.2353541388924386,1.1590614596647981,1.4602956157590512,0.3374816869957856
21141000000,20908,21141000000,,base_to_link1,link1_to_link2,link2_to_link3,-0.05389944573277994,-0.05127510384255718,-0.00906480473193838,-0.6256368196327806,-0.9705373247393191,-0.23645004926432145,1.1629804330737123,1.4726676423672473,0.3414766172728435
21142000000,20909,21142000000,,base_to_link1,link1_to_link2,link2_to_link3,-0.05452260600643477,-0.052247907828200546,-0.009302285620753636,-0.623160293505221,-0.9728040456444633,-0.23748095653566725,1.1668446086365738,1.4848769200875103,0.3454189914994431
21143000000,20910,21143000000,,base_to_link1,link1_to_link2,link2_to_link3,-0.055143259846383685,-0.05322279495337856,-0.009540733348172736,-0.620653859564773,-0.9748871861622295,-0.23844779578648212,1.170654208082773,1.4969239277213535,0.3493089710305046
21144000000,20911,21144000000,,base_to_link1,link1_to_link2,link2_to_link3,-0.05576137786881219,-0.054199583961328734,-0.009780084775906417,-0.6181180418105969,-0.9767890698710778,-0.2393514967089846,1.1744094560361908,1.5088091613027346,0.3531467230967261
21145000000,20912,21145000000,,base_to_link1,link1_to_link2,link2_to_link3,-0.05637693121180476,-0.05517809591243594,-0.010020277689870127,-0.6155533621403948,-0.9785120139107678,-0.2401929835018456,1.1781105801179343,1.5205331337383572,0.35693242062888686
21146000000,20913,21146000000,,base_to_link1,link1_to_link2,link2_to_link3,-0.0569898915333269,-0.05615815417752312,-0.01026125079458673,-0.6129603404306242,-0.9800583287275944,-0.24097317477185964,1.1817578110431373,1.532096374502376,0.36066624210417114
21147000000,20914,21147000000,,base_to_link1,link1_to_link2,link2_to_link3,-0.05760023100924627,-0.057139584430923485,-0.010502943707507484,-0.6103394945933769,-0.9814303178258752,-0.24169298345193668,1.1853513826794604,1.5434994292873974,0.3643483713644564
21148000000,20915,21148000000,,base_to_link1,link1_to_link2,link2_to_link3,-0.05820792233142669,-0.05812221464328626,-0.010745296953277972,-0.6076913406183915,-0.9826302775247764,-0.24235331673382166,1.1888915320669,1.5547428597190134,0.3679789974673656
21149000000,20916,21149000000,,base_to_link1,link1_to_link2,link2_to_link3,-0.05881293870582027,-0.05910587507416576,-0.010988251957918749,-0.6050163925923455,-0.9836604967313062,-0.24295507599338562,1.1923784994720756,1.565827243019701,0.3715583145632982
21150000000,20917,21150000000,,base_to_link1,link1_to_link2,link2_to_link3,-0.05941525385057034,-0.06009039826438478,-0.011231751042958038,-0.6023151627088458,-0.9845232567125399,-0.24349915673649525,1.195812528367888,1.5767531717202878,0.37508652174123436
21151000000,20918,21151000000,,base_to_link1,link1_to_link2,link2_to_link3,-0.060014841994116,-0.061075619028179595,-0.011475737419504028,-0.5995881612681597,-0.9852208308775701,-0.2439864485461839,1.1991938654257188,1.5875212533602685,0.3785638229112611
21152000000,20919,21152000000,,base_to_link1,link1_to_link2,link2_to_link3,-0.060611677873298575,-0.06206137444511217,-0.01172015518228342,-0.596835896665658,-0.9857554845637422,-0.24441783503906134,1.202522760498764,1.5981321101930368,0.3819904266739337
21153000000,20920,21153000000,,base_to_link1,link1_to_link2,link2_to_link3,-0.0612057367314236,-0.06304750385181723,-0.011964949303621353,-0.5940588753695099,-0.9861294748335085,-0.24479419381602907,1.2057994666053813,1.6085863788745702,0.3853665462158702
21154000000,20921,21154000000,,base_to_link1,link1_to_link2,link2_to_link3,-0.061796994316317466,-0.06403384883350238,-0.012210065627403566,-0.5912576018981784,-0.9863450502679978,-0.24511639643466165,1.209024239865809,1.6188847102179569,0.3886923991797694
21155000000,20922,21155000000,,base_to_link1,link1_to_link2,link2_to_link3,-0.06238542687833615,-0.06502025321528837,-0.012455450862983497,-0.5884325787870193,-0.9864044507753345,-0.24538530836683803,1.2121973394779073,1.6290277688637311,0.3919682075750639
21156000000,20923,21156000000,,base_to_link1,link1_to_link2,link2_to_link3,-0.06297101116836501,-0.06600656305333086,-0.012701052579080496,-0.5855843065564544,-0.9863099073937666,-0.24560178897789797,1.2153190276497867,1.6390162330356444,0.3951941976506045
21157000000,20924,21157000000,,base_to_link1,link1_to_link2,link2_to_link3,-0.06355372443574225,-0.06699262662576988,-0.012946819197638959,-0.582713283668437,-0.9860636421085763,-0.2457666914922947,1.2183895695714244,1.6488507942356216,0.39837059981341544
21158000000,20925,21158000000,,base_to_link1,link1_to_link2,link2_to_link3,-0.0641335444261788,-0.06797829442349101,-0.013192699987667922,-0.5798200064903325,-0.9856678676663242,-0.2458808629734791,1.2214092333180144,1.6585321569831726,0.40149764851677827
21159000000,20926,21159000000,,base_to_link1,link1_to_link2,link2_to_link3,-0.06471044937961246,-0.06896341914071247,-0.013438645059048682,-0.5769049692492663,-0.9851247873974549,-0.2459451443005347,1.2243782898261095,1.6680610385369201,0.40457558216761347
21160000000,20927,21160000000,,base_to_link1,link1_to_link2,link2_to_link3,-0.06528441802802298,-0.06994785566538564,-0.013684605356349522,-0.5739686639900715,-0.9844365950380232,-0.24596037015449146,1.227297012806933,1.6774381686285933,0.4076046430210386
21161000000,20928,21161000000,,base_to_link1,link1_to_link2,link2_to_link3,-0.06585542959320811,-0.07093146106943404,-0.0139305326525907,-0.5710115805289465,-0.9836054745623153,-0.2459273689921624,1.2301656786859394,1.6866642891827088,0.4105850771140854
21162000000,20929,21162000000,,base_to_link1,link1_to_link2,link2_to_link3,-0.06642346378451158,-0.07191409459882525,-0.01417637954302009,-0.5680342064100529,-0.9826336000123941,-0.24584696303819165,1.2329845665419872,1.6957401540594956,0.41351713414196933
21163000000,20930,21163000000,,base_to_link1,link1_to_link2,link2_to_link3,-0.0669885007964961,-0.07289561766347052,-0.014422099438853309,-0.565037026858916,-0.9815231353352534,-0.24571996826709386,1.2357539580371433,1.7046665287908103,0.4164010673948786
21164000000,20931,21164000000,,base_to_link1,link1_to_link2,link2_to_link3,-0.067550521306595,-0.07387589382697346,-0.01466764656102626,-0.5620205247400597,-0.9802762342199056,-0.24554719439639028,1.238474137338832,1.7134441903089916,0.41923713364814363
21165000000,20932,21165000000,,base_to_link1,link1_to_link2,link2_to_link3,-0.0681095064726982,-0.0748547887962081,-0.014912975933921047,-0.5589851805103574,-0.9788950399425529,-0.2453294448694111,1.2411453910755166,1.72207392669551,0.42202559310051263
21166000000,20933,21166000000,,base_to_link1,link1_to_link2,link2_to_link3,-0.06866543793069724,-0.07583217041075851,-0.015158043379074115,-0.5559314721766422,-0.9773816852130244,-0.24506751684632955,1.243768008247316,1.7305565369083622,0.4247667092730199
21167000000,20934,21167000000,,base_to_link1,link1_to_link2,link2_to_link3,-0.06921829779200728,-0.07680790863220022,-0.015402805508896833,-0.5528598752549279,-0.9757382920203013,-0.24476220120271663,1.2463422801610755,1.738892830540042,0.42746074891651764
21168000000,20935,21168000000,,base_to_link1,link1_to_link2,link2_to_link3,-0.06976806864101626,-0.0777818755332289,-0.01564721972038008,-0.5497708627272911,-0.9739669714876327,-0.244414282516753,1.2488685003829707,1.7470836275543835,0.43010798194954797
21169000000,20936,21169000000,,base_to_link1,link1_to_link2,link2_to_link3,-0.07031473353253226,-0.07875394528665058,-0.01589124418878818,-0.5466649050027548,-0.9720698237278685,-0.24402453906311206,1.2513469646406408,1.7551297580271903,0.43270868136759566
21170000000,20937,21170000000,,base_to_link1,link1_to_link2,link2_to_link3,-0.07085827598914562,-0.07972399415423315,-0.016134837861349283,-0.5435424698765746,-0.9700489377023662,-0.24359374280786694,1.2537779707963563,1.763032061899683,0.4352631231575351
21171000000,20938,21171000000,,base_to_link1,link1_to_link2,link2_to_link3,-0.07139867999860527,-0.08069190047541586,-0.016377960450947526,-0.5404040224965245,-0.9679063910810769,-0.24312265940759437,1.2561618187358432,1.7707913887305473,0.4377715862191346
21172000000,20939,21172000000,,base_to_link1,link1_to_link2,link2_to_link3,-0.07193593001111509,-0.08165754465587671,-0.016620572429806302,-0.5372500253227308,-0.9656442501086926,-0.24261204820211624,1.2584988103567216,1.778408597442997,0.4402343522919038
21173000000,20940,21173000000,,base_to_link1,link1_to_link2,link2_to_link3,-0.07247001093661964,-0.08262080915598435,-0.016862635023167982,-0.5340809380958222,-0.963264569472553,-0.24206266221239603,1.2607892494619968,1.7858845560704077,0.44265170587117075
21174000000,20941,21174000000,,base_to_link1,link1_to_link2,link2_to_link3,-0.07300090814204907,-0.08358157847910253,-0.01710411020298075,-0.5308972178017927,-0.9607693921722534,-0.24147524814078647,1.2630334417227176,1.7932201415274251,0.4450239341294391
21175000000,20942,21175000000,,base_to_link1,link1_to_link2,link2_to_link3,-0.07352860744853906,-0.08453973915978796,-0.017344960681562327,-0.5276993186407858,-0.9581607493951755,-0.24085054636533898,1.2652316946100255,1.8004162393476162,0.44735132684848156
21176000000,20943,21176000000,,base_to_link1,link1_to_link2,link2_to_link3,-0.07405309512860292,-0.08549517975183907,-0.01758514990529747,-0.5244876919971747,-0.9554406603902815,-0.240189290947881,1.2673843173429409,1.8074737434608972,0.4496341763209532
21177000000,20944,21177000000,,base_to_link1,link1_to_link2,link2_to_link3,-0.07457435790329292,-0.08644779081624687,-0.017824642048303474,-0.5212627864099512,-0.9526111323507397,-0.23949220962374917,1.269491620812572,1.8143935559268263,0.4518727773092456
21178000000,20945,21178000000,,base_to_link1,link1_to_link2,link2_to_link3,-0.07509238293933329,-0.08739746490902345,-0.01806340200611345,-0.5180250475446955,-0.9496741602949494,-0.23876002380950234,1.2715539175435198,1.8211765867184209,0.4540674269382264
21179000000,20946,21179000000,,base_to_link1,link1_to_link2,link2_to_link3,-0.07560715784620875,-0.08834409656890241,-0.018301395389357822,-0.5147749181676118,-0.946631726951559,-0.2379934486029731,1.273571521637232,1.8278237534798667,0.4562184246379237
21180000000,20947,21180000000,,base_to_link1,link1_to_link2,link2_to_link3,-0.07611867067324773,-0.08928758230495415,-0.018538588517440502,-0.5115128381209524,-0.943485802648905,-0.23719319278434214,1.2755447486989218,1.8343359812776099,0.4583260720666429
21181000000,20948,21181000000,,base_to_link1,link1_to_link2,link2_to_link3,-0.07662690990667365,-0.0902278205840572,-0.01877494841224525,-0.5082392442995357,-0.9402383452029558,-0.23635995882436645,1.2774739158035102,1.840714202393213,0.4603906730304599
21182000000,20949,21182000000,,base_to_link1,link1_to_link2,link2_to_link3,-0.07713186446663478,-0.09116471181829322,-0.019010442791797644,-0.5049545706266187,-0.9368912998170589,-0.2354944428753314,1.2793593414346027,1.8469593560561426,0.4624125334385987
21183000000,20950,21183000000,,base_to_link1,link1_to_link2,link2_to_link3,-0.07763352370420584,-0.09209815835222468,-0.019245040063983865,-0.5016592480343308,-0.9334465989727353,-0.23459733478952283,1.2812013454339044,1.8530723882432798,0.4643919611836619
21184000000,20951,21184000000,,base_to_link1,link1_to_link2,link2_to_link3,-0.07813187739838945,-0.09302806445008027,-0.01947870932022333,-0.49835370444335114,-0.9299061623337598,-0.23366931811198854,1.283000248943246,1.8590542514363908,0.46632926612378933
21185000000,20952,21185000000,,base_to_link1,link1_to_link2,link2_to_link3,-0.07862691575307501,-0.09395433628282479,-0.019711420329199925,-0.49503836474451895,-0.926271896644105,-0.23271107009750547,1.284756374375025,1.8649059044035305,0.4682247599612281
21186000000,20953,21186000000,,base_to_link1,link1_to_link2,link2_to_link3,-0.0791186293939905,-0.0948768819151633,-0.01994314353054527,-0.49171365077904716,-0.9225456956385858,-0.2317232617016196,1.2864700453395894,1.8706283119561844,0.4700787562264042
21187000000,20954,21187000000,,base_to_link1,link1_to_link2,link2_to_link3,-0.07960700936565068,-0.09579561129242808,-0.020173850028568197,-0.48837998132505295,-0.9187294399447752,-0.23070655760162528,1.2881415866080683,1.8762224447554776,0.4718915701548314
21188000000,20955,21188000000,,base_to_link1,link1_to_link2,link2_to_link3,-0.08009204712825913,-0.09671043622737852,-0.020403511585977085,-0.4850377720788706,-0.9148249969986256,-0.22966161619402192,1.2897713240787239,1.8816892790656883,0.4736635186587144
21189000000,20956,21189000000,,base_to_link1,link1_to_link2,link2_to_link3,-0.08057373455462269,-0.0976212703869388,-0.020632100617595128,-0.48168743564126787,-0.9108342209566156,-0.22858908960194535,1.2913595847001988,1.8870297965370693,0.4753949202451704
21190000000,20957,21190000000,,base_to_link1,link1_to_link2,link2_to_link3,-0.08105206392703934,-0.09852802927881665,-0.02085959018411998,-0.4783293815058574,-0.9067589526089965,-0.22748962369160675,1.2929066964535108,1.8922449840129087,0.47708609493435833
21191000000,20958,21191000000,,base_to_link1,link1_to_link2,link2_to_link3,-0.08152702793418065,-0.09943063023807053,-0.021085953985846118,-0.47496401604303956,-0.9026010193041214,-0.22636385806744141,1.2944129882946929,1.897335833278542,0.4787373642296501
21192000000,20959,21192000000,,base_to_link1,link1_to_link2,link2_to_link3,-0.08199861966795474,-0.10032899241357907,-0.021311166356433375,-0.4715917424894328,-0.8983622348652114,-0.2252124260933689,1.2958787901186972,1.902303340877336,0.4803490510056345
21193000000,20960,21193000000,,base_to_link1,link1_to_link2,link2_to_link3,-0.08246683262035681,-0.10122303675444311,-0.021535202256668384,-0.46821296093728626,-0.894044399517687,-0.22403595489466666,1.297304432708887,1.907148507879499,0.4819214794801586
21194000000,20961,21194000000,,base_to_link1,link1_to_link2,link2_to_link3,-0.08293166068032853,-0.1021126859963255,-0.02175803726822778,-0.46482806832265583,-0.8896492998159216,-0.22283506536923703,1.298690247693507,1.9118723396803976,0.48345497513298663
21194000000,20962,21195000000,,base_to_link1,link1_to_link2,link2_to_link3,-0.08339309813057305,-0.10299786464769145,-0.021979647587478723,-0.46143745841732003,-0.8851787085700911,-0.22161037220393398,1.3000365675235575,1.9164758458035713,0.48494986463335554
21196000000,20963,21196000000,,base_to_link1,link1_to_link2,link2_to_link3,-0.08385113964439306,-0.1038784989760062,-0.022200010019268746,-0.458041521818089,-0.8806343847828014,-0.22036248387612234,1.301343725396928,1.920960039665431,0.48640647580349966
21197000000,20964,21197000000,,base_to_link1,link1_to_link2,link2_to_link3,-0.08430578028250935,-0.10475451699386884,-0.02241910197072272,-0.4546406459396513,-0.8760180735832818,-0.21909200266786133,1.302612055250262,1.9253259383963623,0.48782513753407913
21198000000,20965,21198000000,,base_to_link1,link1_to_link2,link2_to_link3,-0.08475701548986336,-0.10562584844506961,-0.022636901445064694,-0.45123521500618946,-0.8713315061623067,-0.21779952468352903,1.3038418917079888,1.9295745626398613,0.4892061797174512
21199000000,20966,21199000000,,base_to_link1,link1_to_link2,link2_to_link3,-0.08520484109242688,-0.10649242479058518,-0.022853387035461026,-0.447825610045645,-0.866576399713486,-0.21648563986025093,1.3050335700347477,1.933706936338454,0.49054993319899726
21200000000,20967,21200000000,,base_to_link1,link1_to_link2,link2_to_link3,-0.08564925329399209,-0.10735417919453827,-0.02306853791885466,-0.44441220888042776,-0.8617544573799879,-0.2151509319729613,1.30618742611097,1.9377240865331944,0.491856729725147
21201000000,20968,21201000000,,base_to_link1,link1_to_link2,link2_to_link3,-0.08609024867296533,-0.10821104651008273,-0.02328233384981182,-0.4409953861238928,-0.8568673681960579,-0.2137959786549103,1.3073037963816185,1.941627043189437,0.49312690186109137
21202000000,20969,21202000000,,base_to_link1,link1_to_link2,link2_to_link3,-0.08652782417915006,-0.10906296326524956,-0.023494755154414904,-0.43757551317389554,-0.8519168070350372,-0.2124213514149117,1.3083830178280509,1.945416838982769,0.4943607829299551
21203000000,20970,21203000000,,base_to_link1,link1_to_link2,link2_to_link3,-0.08696197713052811,-0.10990986764873245,-0.023705782724132263,-0.4341529582078891,-0.8469044345627579,-0.2110276156424854,1.3094254279255648,1.9490945091200658,0.49555870698626836
21204000000,20971,21204000000,,base_to_link1,link1_to_link2,link2_to_link3,-0.08739270521003561,-0.11075169949563435,-0.023915398009723532,-0.43072808617775726,-0.8418318971889392,-0.20961533062890214,1.3104313646098,1.952661091138611,0.4967210087198768
21205000000,20972,21205000000,,base_to_link1,link1_to_link2,link2_to_link3,-0.08782000646232468,-0.11158840027316419,-0.024123583015150274,-0.42730125880551817,-0.8367008270236975,-0.2081850495802735,1.3114011662395353,1.956117624726129,0.4978480234188918
21206000000,20973,21206000000,,base_to_link1,link1_to_link2,link2_to_link3,-0.08824387929054289,-0.11241991306630172,-0.024330320291516827,-0.42387283458131214,-0.8315128418342675,-0.20673731963565234,1.3123351715504548,1.9594651515296453,0.4989400869025007
21207000000,20974,21207000000,,base_to_link1,link1_to_link2,link2_to_link3,-0.08866432245308609,-0.11324618256341612,-0.024535592931011152,-0.4204431687571539,-0.8262695450087366,-0.20527268187881187,1.313233719641066,1.9627047149817796,0.49999753547900194
21208000000,20975,21208000000,,base_to_link1,link1_to_link2,link2_to_link3,-0.08908133506036542,-0.1140671550418384,-0.02473938456086522,-0.4170126133460627,-0.820972525516522,-0.20379167135872123,1.3140971499139367,1.9658373601123484,0.5010207058736367
21209000000,20976,21209000000,,base_to_link1,link1_to_link2,link2_to_link3,-0.0894949165715655,-0.1148827783534232,-0.024941679337343814,-0.4135815171179791,-0.8156233578750203,-0.20229481710590436,1.3149258020579289,1.9688641333594943,0.502009935176188
21210000000,20977,21210000000,,base_to_link1,link1_to_link2,link2_to_link3,-0.08990506679138655,-0.11569300191005194,-0.02514246193973868,-0.4101502255971953,-0.8102236021184285,-0.20078264214884634,1.3157200160072473,1.9717860824162197,0.5029655607977972
21211000000,20978,21211000000,,base_to_link1,link1_to_link2,link2_to_link3,-0.09031178586681143,-0.11649777666913241,-0.0253417175643893,-0.40671908106173704,-0.8047748037673784,-0.19925566353276192,1.316480131893219,1.9746042560283579,0.5038879204047466
21212000000,20979,21212000000,,base_to_link1,link1_to_link2,link2_to_link3,-0.09071507428385495,-0.11729705511905042,-0.025539431918707223,-0.40328842253984154,-0.7992784938025638,-0.19771439233709398,1.317206490037175,1.9773197038475632,0.5047773518738701
21213000000,20980,21213000000,,base_to_link1,link1_to_link2,link2_to_link3,-0.09111493286430239,-0.11809079126460365,-0.025735591215248377,-0.3998585858083206,-0.7937361886387063,-0.19615933369809424,1.317899430900518,1.9799334762393952,0.5056341932249094
21214000000,20981,21214000000,,base_to_link1,link1_to_link2,link2_to_link3,-0.09151136276246596,-0.1188789406124231,-0.025930182165765814,-0.39642990339161593,-0.7881493901054911,-0.1945909868199197,1.3185592950417873,1.9824466241214114,0.5064587825978488
21215000000,20982,21215000000,,base_to_link1,link1_to_link2,link2_to_link3,-0.09190436546193226,-0.11966146015635548,-0.026123191975315763,-0.3930027045611845,-0.7825195854229011,-0.19300984500489404,1.3191864231023174,1.9848601988064485,0.5072514581625067
21216000000,20983,21216000000,,base_to_link1,link1_to_link2,link2_to_link3,-0.0922939427722973,-0.12043830836284553,-0.02631460833636723,-0.38957731533215795,-0.7768482471878412,-0.19141639566534052,1.319781155765161,1.9871752518188537,0.5080125581015933
21217000000,20984,21217000000,,base_to_link1,link1_to_link2,link2_to_link3,-0.09268009682592471,-0.1212094451562935,-0.02650441942293824,-0.38615405846556344,-0.7711368333563682,-0.1898111203476931,1.3203438337103313,1.9893928347497802,0.5087424205440647
21218000000,20985,21218000000,,base_to_link1,link1_to_link2,link2_to_link3,-0.09306283007467364,-0.12197483190440384,-0.026692613884739202,-0.3827332534646007,-0.7653867872323676,-0.18819449475069094,1.3208747976057977,1.991513999087352,0.5094413835218858
21219000000,20986,21219000000,,base_to_link1,link1_to_link2,link2_to_link3,-0.0934421452866605,-0.12273443140351592,-0.026879180841362427,-0.3793152165775251,-0.7595995374538547,-0.18656698875310473,1.3213743880448883,1.9935397960627106,0.510109784907331
21220000000,20987,21220000000,,base_to_link1,link1_to_link2,link2_to_link3,-0.09381804554297979,-0.1234882078639421,-0.027064109876471676,-0.3759002607931261,-0.753776497988457,-0.18492906642689044,1.321842945547973,1.995471276486989,0.510747962389914
21221000000,20988,21221000000,,base_to_link1,link1_to_link2,link2_to_link3,-0.0941905342344711,-0.12423612689527186,-0.027247391032021895,-0.3724886958454108,-0.7479190681226328,-0.18328118606645893,1.3222808104891288,1.9973094906132112,0.5113562534071264
21222000000,20989,21222000000,,base_to_link1,link1_to_link2,link2_to_link3,-0.09455961505844002,-0.12497815549170976,-0.027429014802509144,-0.3690808282086728,-0.7420286324619576,-0.1816238002060202,1.3226883231103055,1.999055487956981,0.5119349951057308
21223000000,20990,21223000000,,base_to_link1,link1_to_link2,link2_to_link3,-0.09492529201541622,-0.1257142620173708,-0.02760897212921698,-0.36567696110107284,-0.7361065609259774,-0.17995735564428783,1.323065823442655,2.000710317184999,0.5124845243034106
21224000000,20991,21224000000,,base_to_link1,link1_to_link2,link2_to_link3,-0.09528756940588501,-0.1264444161916094,-0.027787254394530336,-0.36227739448373597,-0.7301542087488259,-0.17828229347162106,1.3234136513117196,2.0022750259267506,0.5130051774166204
21225000000,20992,21225000000,,base_to_link1,link1_to_link2,link2_to_link3,-0.0956464518270419,-0.12716858907433082,-0.02796385341622276,-0.35888242506090756,-0.7241729164830052,-0.17659904908486423,1.323732146278402,2.003750660662906,0.5134972904602959
21226000000,20993,21226000000,,base_to_link1,link1_to_link2,link2_to_link3,-0.09600194416952057,-0.12788675305131303,-0.028138761441807603,-0.35549234628023946,-0.7181640100019611,-0.17490805222092864,1.3240216476298996,2.0051382665620068,0.5139611989530899
21227000000,20994,21227000000,,base_to_link1,link1_to_link2,link2_to_link3,-0.09635405161416166,-0.12859888181953405,-0.028311971142892745,-0.35210744833508384,-0.7121288005072914,-0.17320972697497872,1.324282494320633,2.0064388873456727,0.5143972379139659
21228000000,20995,21228000000,,base_to_link1,link1_to_link2,link2_to_link3,-0.09670277962873186,-0.12930495037251166,-0.02848347560956377,-0.34872801816154747,-0.70606858453825,-0.17150449182572358,1.324515024981081,2.0076535651485115,0.5148057417984312
21229000000,20996,21229000000,,base_to_link1,link1_to_link2,link2_to_link3,-0.09704813396468381,-0.13000493498565024,-0.02865326834479731,-0.3453543394440719,-0.6999846439802716,-0.16979275966366192,1.3247195778355183,2.0087833403852517,0.5151870444599753
21230000000,20997,21230000000,,base_to_link1,link1_to_link2,link2_to_link3,-0.09739012065390362,-0.13069881320160004,-0.028821343258895737,-0.3419866926123072,-0.693878246078556,-0.16807493781354987,1.3248964907107568,2.0098292516125933,0.5155414791136411
21231000000,20998,21231000000,,base_to_link1,link1_to_link2,link2_to_link3,-0.09772874600545123,-0.13138656381562708,-0.028987694663944907,-0.33862535484481726,-0.6877506434532401,-0.1663514280602708,1.3250461009914645,2.010792335396505,0.5158693782909646
21232000000,20999,21232000000,,base_to_link1,link1_to_link2,link2_to_link3,-0.09806401660231678,-0.13206816686100975,-0.029152317268300365,-0.3352706000684195,-0.681603074114285,-0.16462262667609917,1.325168745580743,2.011673626177835,0.5161710737969624
21233000000,21000,21233000000,,base_to_link1,link1_to_link2,link2_to_link3,-0.09839593929816637,-0.13274360359444426,-0.029315206171107278,-0.3319226989604586,-0.6754367614811028,-0.16288892444785652,1.3252647608839507,2.0124741561541573,0.516446896672784
21234000000,21001,21234000000,,base_to_link1,link1_to_link2,link2_to_link3,-0.09872452121409658,-0.1334128564814785,-0.029476356856838137,-0.3285819189498425,-0.6692529144025249,-0.16115070670034326,1.3253344827657738,2.0131949551439328,0.5166971771640928
21235000000,21002,21235000000,,base_to_link1,link1_to_link2,link2_to_link3,-0.09904976973538204,-0.13407590918195833,-0.029635765189850005,-0.32524852421853184,-0.663052727179508,-0.1594083533248256,1.3253782465269204,2.013837050470481,0.5169222446736672
21236000000,21003,21236000000,,base_to_link1,link1_to_link2,link2_to_link3,-0.09937169250823885,-0.13473274653550416,-0.029793427408993267,-0.3219227757033862,-0.6568373795868437,-0.15766223881035257,1.325396386864755,2.014401466830066,0.5171224277160076
21237000000,21004,21237000000,,base_to_link1,link1_to_link2,link2_to_link3,-0.09969029743657387,-0.13538335454701578,-0.02994934012222572,-0.31860493109647564,-0.6506080369025234,-0.15591273226435332,1.3253892378571803,2.0148892261780467,0.5172980539045298
21238000000,21005,21238000000,,base_to_link1,link1_to_link2,link2_to_link3,-0.1000055926787411,-0.13602772037219868,-0.03010350030126041,-0.31529524484910804,-0.6443658499332489,-0.1541601974451653,1.3253571329161786,2.015301347613507,0.5174494498926329
21239000000,21006,21239000000,,base_to_link1,link1_to_link2,link2_to_link3,-0.100317586644314,-0.13666583230312224,-0.030255905276252548,-0.3119939681720353,-0.6381119550430633,-0.15240499279096864,1.3253004047627335,2.015638847256988,0.5175769413435873
21240000000,21007,21240000000,,base_to_link1,link1_to_link2,link2_to_link3,-0.10062628799082951,-0.13729767975381169,-0.03040655273049353,-0.3087013490369536,-0.6318474741879667,-0.15064747144302815,1.3252193854107928,2.0159027381391823,0.5176808529062165
21241000000,21008,21241000000,,base_to_link1,link1_to_link2,link2_to_link3,-0.10093170562056741,-0.1379232532458703,-0.030555440695163583,-0.3054176321812859,-0.6255735149443111,-0.1488879812822067,1.325114406106534,2.016094030091722,0.5177615081586832
21242000000,21009,21242000000,,base_to_link1,link1_to_link2,link2_to_link3,-0.10123384867730323,-0.13854254439413172,-0.030702567544071968,-0.30214305910653755,-0.6192911705482141,-0.14712686494865213,1.3249857973319312,2.0162137296347113,0.5178192296044895
21243000000,21010,21243000000,,base_to_link1,link1_to_link2,link2_to_link3,-0.1015327265430912,-0.13915554589236567,-0.03084793198847713,-0.29887786808450584,-0.6130015199268888,-0.14536445988255364,1.324833888745879,2.016262839864538,0.5178543385972671
21244000000,21011,21244000000,,base_to_link1,link1_to_link2,link2_to_link3,-0.10182834883502423,-0.13976225149899602,-0.03099153307189262,-0.2956222941566664,-0.6067056277411071,-0.1436010983424144,1.3246590091824586,2.0162423603653012,0.5178671553588927
21245000000,21012,21245000000,,base_to_link1,link1_to_link2,link2_to_link3,-0.10212072540200623,-0.14036265602287923,-0.031133370164946328,-0.2923765691382174,-0.6004045444225077,-0.14183710744181366,1.3244614865956805,2.01615328707949,0.5178579989032799
21246000000,21013,21246000000,,base_to_link1,link1_to_link2,link2_to_link3,-0.10240986632154048,-0.1409567553091149,-0.031273442960264575,-0.2891409216211305,-0.5940993062146157,-0.1400728091777096,1.324241648039874,2.015996612227216,0.5178271870283088
21247000000,21014,21247000000,,base_to_link1,link1_to_link2,link2_to_link3,-0.10269578189649309,-0.14154454622490587,-0.03141175146737574,-0.28591557697509756,-0.5877909352174098,-0.1383085204593344,1.3239998196537854,2.0157733241973297,0.5177750362796254
21248000000,21015,21248000000,,base_to_link1,link1_to_link2,link2_to_link3,-0.10297848265189202,-0.14212602664544693,-0.031548296007677834,-0.2827007573538625,-0.5814804394279094,-0.13654455314559522,1.3237363266035715,2.015484407456779,0.5177018619093422
21249000000,21016,21249000000,,base_to_link1,link1_to_link2,link2_to_link3,-0.10325797933169056,-0.14270119543988447,-0.03168307720938657,-0.2794966816928626,-0.5751688127922351,-0.13478121406180799,1.3234514930865364,2.015130842438929,0.5176079778799099
21250000000,21017,21250000000,,base_to_link1,link1_to_link2,link2_to_link3,-0.10353428289557698,-0.14327005245729563,-0.03181609600256152,-0.2763035657194488,-0.5688570352457388,-0.13301880504770214,1.3231456422634598,2.014713605475205,0.5174936967842605
21251000000,21018,21251000000,,base_to_link1,link1_to_link2,link2_to_link3,-0.10380740451575399,-0.14383259851274044,-0.031947353614128815,-0.2731216219502107,-0.5625460727681075,-0.13125762297512955,1.322819096273094,2.014233668675405,0.5173593298645839
21252000000,21019,21252000000,,base_to_link1,link1_to_link2,link2_to_link3,-0.10407735557373599,-0.14438883537334757,-0.032076851562969466,-0.2699510596977118,-0.556236877428619,-0.12949795978962297,1.3224721761699725,2.013691999862017,0.5172051869493431
21253000000,21020,21253000000,,base_to_link1,link1_to_link2,link2_to_link3,-0.10434414765715161,-0.1449387657444552,-0.03220459165499534,-0.26679208507303664,-0.5499303874423898,-0.1277401025316569,1.3221052019103567,2.013089562465778,0.5170315764603526
21254000000,21021,21254000000,,base_to_link1,link1_to_link2,link2_to_link3,-0.1046077925565374,-0.1454823932558229,-0.03233057597829969,-0.2636449009901494,-0.5436275272198374,-0.12598433337956572,1.321718492325795,2.0124273154430905,0.5168388053415411
21255000000,21022,21255000000,,base_to_link1,link1_to_link2,link2_to_link3,-0.10486830226215815,-0.14601972244786143,-0.03245480689832547,-0.26050970717067456,-0.537329207421831,-0.12423092967661342,1.3213123650823815,2.0117062132101196,0.5166271790756485
21256000000,21023,21256000000,,base_to_link1,link1_to_link2,link2_to_link3,-0.10512568896080587,-0.1465507587579582,-0.03257728705303897,-0.2573867001449337,-0.5310363250189026,-0.12248016395708883,1.3208871366758042,2.010927205523763,0.5163970016442858
21257000000,21024,21257000000,,base_to_link1,link1_to_link2,link2_to_link3,-0.10537996503262015,-0.14707550850682782,-0.0326980193481905,-0.254276073260891,-0.524749763342023,-0.12073230399396828,1.3204431223782152,2.0100912374417277,0.5161485754756203
21258000000,21025,21258000000,,base_to_link1,link1_to_link2,link2_to_link3,-0.10563114304790666,-0.14759397888494252,-0.03281700695254841,-0.2511780166842686,-0.5184703921482088,-0.11898761281423575,1.3199806362279436,2.0091992492117887,0.5158822014748132
21259000000,21026,21259000000,,base_to_link1,link1_to_link2,link2_to_link3,-0.10587923576396463,-0.14810617793901404,-0.03293425329321664,-0.24809271740726874,-0.5121990676739347,-0.11724634874686268,1.319499990996095,2.008252176216896,0.515598178940446
21260000000,21027,21260000000,,base_to_link1,link1_to_link2,link2_to_link3,-0.10612425612191245,-0.1486121145585324,-0.03304976205095045,-0.24502035924959728,-0.5059366327003246,-0.11550876544505062,1.319001498163894,2.0072509488923664,0.5152968055920772
21261000000,21028,21261000000,,base_to_link1,link1_to_link2,link2_to_link3,-0.10636621724352047,-0.149111798462374,-0.033163537155516565,-0.24196112286664032,-0.4996839166132852,-0.11377511192490775,1.3184854678893487,2.006196492648958,0.5149783775125093
21262000000,21029,21262000000,,base_to_link1,link1_to_link2,link2_to_link3,-0.10660513242805969,-0.14960524018546817,-0.03327558278110665,-0.23891518575409212,-0.49344173546646414,-0.11204563260038458,1.3179522089828637,2.0050897278090565,0.5146431891367678
21263000000,21030,21263000000,,base_to_link1,link1_to_link2,link2_to_link3,-0.10684101514914168,-0.1500924510655386,-0.03338590334173652,-0.23588272225116033,-0.48721089204871926,-0.11032056730697976,1.3174020288918933,2.003931569532777,0.5142915332505986
21264000000,21031,21264000000,,base_to_link1,link1_to_link2,link2_to_link3,-0.10707387905156018,-0.1505734432298853,-0.03349450348673422,-0.23286390354899292,-0.48099217594509797,-0.10860015135107726,1.3168352336606315,2.0027229277607894,0.5139237009212869
21265000000,21032,21265000000,,base_to_link1,link1_to_link2,link2_to_link3,-0.1073037379481665,-0.15104822958226638,-0.03360138809622448,-0.22985889769663434,-0.47478636360758075,-0.10688461552966955,1.3162521279003763,2.001464707123781,0.5135399815325679
21266000000,21033,21266000000,,base_to_link1,link1_to_link2,link2_to_link3,-0.1075306058167218,-0.15151682378982745,-0.033706562276661245,-0.22686786960461114,-0.46859421842144366,-0.1051741861711627,1.3156530147922032,2.0001578069115316,0.5131406627271178
21267000000,21034,21267000000,,base_to_link1,link1_to_link2,link2_to_link3,-0.10775449679676363,-0.1519792402700917,-0.03381003135639027,-0.22389098105333238,-0.4624164907735706,-0.10346908516868958,1.3150381960325592,1.998803120990927,0.5127260304011325
21268000000,21035,21268000000,,base_to_link1,link1_to_link2,link2_to_link3,-0.10797542518648662,-0.15243549417805102,-0.0339118008812509,-0.22092839069940504,-0.4562539181237053,-0.10176953001311562,1.3144079718163015,1.9974015377370093,0.5122963686814987
21269000000,21036,21269000000,,base_to_link1,link1_to_link2,link2_to_link3,-0.1081934054396303,-0.1528856013932982,-0.03401187661019911,-0.2179802540824844,-0.4501072250740943,-0.10007573382888973,1.3137626408198733,1.9959539400058788,0.5118519599123125
21270000000,21037,21270000000,,base_to_link1,link1_to_link2,link2_to_link3,-0.10840845216235628,-0.15332957850723705,-0.03411026451099808,-0.21504672363145244,-0.44397712344113066,-0.09838790541083908,1.3131025001774437,1.9944612050475938,0.5113930846238849
21271000000,21038,21271000000,,base_to_link1,link1_to_link2,link2_to_link3,-0.1086205801101574,-0.1537674428103868,-0.034206970755890964,-0.2121279486720854,-0.43786431233195305,-0.09670624924817711,1.3124278454391733,1.9929242044571458,0.5109200215487397
21272000000,21039,21272000000,,base_to_link1,link1_to_link2,link2_to_link3,-0.10882980418475263,-0.15419921227972733,-0.034302001717358976,-0.2092240754351441,-0.4317694782126736,-0.09503096557466273,1.3117389705724298,1.9913438041423486,0.5104330475521274
21273000000,21040,21273000000,,base_to_link1,link1_to_link2,link2_to_link3,-0.10903613943100687,-0.1546249055661404,-0.034395363963882986,-0.20633524706403844,-0.4256932949872873,-0.0933622503915143,1.3110361679166718,1.9897208642388333,0.5099324376665875
21274000000,21041,21274000000,,base_to_link1,link1_to_link2,link2_to_link3,-0.10923960103385078,-0.15504454198193596,-0.03448706425575487,-0.20346160362137408,-0.41963642407215646,-0.09170029550699932,1.3103197281776595,1.9880562390810577,0.5094184650448363
21275000000,21042,21275000000,,base_to_link1,link1_to_link2,link2_to_link3,-0.1094402043152023,-0.15545814148841242,-0.03457710954091198,-0.2006032820992934,-0.41359951447169774,-0.09004528857173544,1.309589940396793,1.986350777163496,0.5088914009594334
21276000000,21043,21276000000,,base_to_link1,link1_to_link2,link2_to_link3,-0.10963796473090781,-0.15586572468355175,-0.03466550695082482,-0.1977604164263127,-0.4075832028570869,-0.08839741311273908,1.3088470919222408,1.984605321050642,0.5083515147760749
21277000000,21044,21277000000,,base_to_link1,link1_to_link2,link2_to_link3,-0.1098328978676939,-0.15626731278974493,-0.03475226379639906,-0.19493313747754645,-0.401588113643285,-0.08675684856795735,1.3080914683980247,1.9828207073895987,0.5077990739577204
21278000000,21045,21278000000,,base_to_link1,link1_to_link2,link2_to_link3,-0.11002501944011023,-0.15666292764162737,-0.03483738756392718,-0.19212157308170455,-0.39561485906939986,-0.0851237703223186,1.307323353744327,1.9809977668181555,0.5072343440298068
21279000000,21046,21279000000,,base_to_link1,link1_to_link2,link2_to_link3,-0.1102143452875044,-0.1570525916739678,-0.03492088591106679,-0.189325848033212,-0.38966403927687804,-0.08349834974395559,1.3065430301181657,1.97913732395389,0.5066575885815823
21280000000,21047,21280000000,,base_to_link1,link1_to_link2,link2_to_link3,-0.11040089137098796,-0.15743632790966888,-0.035002766662863394,-0.18654608409881088,-0.38373624239081616,-0.08188075421810898,1.3057507779152417,1.977240197326946,0.5060690692446617
21281000000,21048,21281000000,,base_to_link1,link1_to_link2,link2_to_link3,-0.11058467377042547,-0.15781415994781955,-0.03508303780780153,-0.18378240002937163,-0.37783204460143005,-0.08027114718374462,1.3049468757308387,1.97530719937254,0.5054690456898774
21282000000,21049,21282000000,,base_to_link1,link1_to_link2,link2_to_link3,-0.1107657086814271,-0.15818611195184307,-0.035161707493893246,-0.18103491156923943,-0.3719520102452576,-0.07866968816727588,1.3041316003529253,1.9733391363635728,0.5048577756084769
21283000000,21050,21283000000,,base_to_link1,link1_to_link2,link2_to_link3,-0.11094401241234664,-0.15855220863773756,-0.03523878402479674,-0.17830373146593484,-0.3660966918894876,-0.07707653281861626,1.3033052267357506,1.9713368083886007,0.5042355147026484
21284000000,21051,21284000000,,base_to_link1,link1_to_link2,link2_to_link3,-0.11111960138130783,-0.15891247526236985,-0.03531427585598834,-0.17558896948323677,-0.36026663041163043,-0.07549183295138179,1.3024680279752645,1.9693010093271612,0.5036025166692976
21285000000,21052,21285000000,,base_to_link1,link1_to_link2,link2_to_link3,-0.11129249211321124,-0.15926693761188826,-0.035388191590945084,-0.17289073240779076,-0.3544623550883942,-0.07391573656889017,1.3016202753079131,1.9672325267865445,0.5029590332075542
21286000000,21053,21286000000,,base_to_link1,link1_to_link2,link2_to_link3,-0.11146270123679436,-0.15961562199019763,-0.03546053997738419,-0.1702091240661466,-0.348684383675525,-0.07234838790998743,1.300762238061275,1.9651321421054662,0.5023053139837697
