%time,field.header.seq,field.header.stamp,field.header.frame_id,field.name0,field.name1,field.name2,field.position0,field.position1,field.position2,field.velocity0,field.velocity1,field.velocity2,field.effort0,field.effort1,field.effort2
11638000000,11392,11633000000,,base_to_link1,link1_to_link2,link2_to_link3,0.0,0.0,0.0,5.270380042056968e-16,-1.60845739612933e-16,4.255159628046693e-16,5.270380042056771e-16,-1.6084573961312547e-16,4.2551596280454626e-16
11638000000,11393,11634000000,,base_to_link1,link1_to_link2,link2_to_link3,-9.041727056668947e-05,1.4645322519157844e-06,-1.6449846391708434e-06,-0.09041727041005321,0.0014643310854775648,-0.0016449839573940727,-5.270380042056968e-16,1.60845739612933e-16,-4.255159628046693e-16
11638000000,11394,11635000000,,base_to_link1,link1_to_link2,link2_to_link3,-0.0002576638567877154,-2.5940081780362334e-06,3.465686551074043e-06,-0.16724658649422333,-0.004057972044212535,0.005110667922004654,0.0913214431157201,-0.0014789764079967227,0.0016614338037857811
11638000000,11395,11636000000,,base_to_link1,link1_to_link2,link2_to_link3,-0.0004912139889174938,-1.6119636105926816e-05,1.753600800213917e-05,-0.23355013327872903,-0.013525923496010561,0.014070323637603053,0.16982322506210049,0.004083912125992897,-0.005145324787515395
11638000000,11396,11637000000,,base_to_link1,link1_to_link2,link2_to_link3,-0.0007824589191134379,-4.157590038822434e-05,4.020945033644807e-05,-0.2912449323076041,-0.025456300589644168,0.02267344278160671,0.23846227316790397,0.01368711985706983,-0.014245683717624445
11638000000,11397,11638000000,,base_to_link1,link1_to_link2,link2_to_link3,-0.001124127565022448,-8.065114206701196e-05,7.016364438872102e-05,-0.34166864918328843,-0.0390752377232237,0.02995419409171335,0.2990695214987385,0.02587205959352641,-0.02307553728497119
11639000000,11398,11639000000,,base_to_link1,link1_to_link2,link2_to_link3,-0.00150996819187732,-0.0001345903049276842,0.00010579927399589906,-0.38584063147837194,-0.05393913917797731,0.035635629737453656,0.3529099248335129,0.03988174914389382,-0.03065583053560056
11640000000,11399,11640000000,,base_to_link1,link1_to_link2,link2_to_link3,-0.0019345538659560901,-0.0002043545931371682,0.00014552811172574565,-0.42458568017178155,-0.06976424903651315,0.039728838117208745,0.40094031339714514,0.05528504222725415,-0.036693622477412646
11641000000,11400,11641000000,,base_to_link1,link1_to_link2,link2_to_link3,-0.0023931497023710335,-0.00029070362790761806,0.0001878846322354022,-0.458595844037025,-0.08634898220092854,0.042356521213888484,0.44393121883134246,0.07180779496788484,-0.0411841192344662
11642000000,11401,11642000000,,base_to_link1,link1_to_link2,link2_to_link3,-0.0028816133957896284,-0.0003942415304241109,0.00023156101672672236,-0.48846370258152066,-0.10353783773252136,0.043676385562889795,0.48252734106073536,0.08925601848000472,-0.044235367536242506
11643000000,11402,11643000000,,base_to_link1,link1_to_link2,link2_to_link3,-0.0033963155782323895,-0.0005154457430354142,0.00027540986301666237,-0.514702193112542,-0.12120413665850205,0.043848847767587004,0.5172798365394169,0.10748025303676247,-0.04599199573015702
11644000000,11403,11644000000,,base_to_link1,link1_to_link2,link2_to_link3,-0.003934073390677639,-0.0006546871573842594,0.0003184341295314752,-0.53775782457256,-0.13924132864794853,0.04302426840638639,0.5486653488948658,0.1263585940888562,-0.04660294639775363
11645000000,11404,11645000000,,base_to_link1,link1_to_link2,link2_to_link3,-0.0044920937881496315,-0.0008122454775136845,0.00035977279571941523,-0.5580204109861241,-0.15755822643094253,0.04133866845961509,0.5770985584793364,0.14578820022179112,-0.04620860970170114
11646000000,11405,11646000000,,base_to_link1,link1_to_link2,link2_to_link3,-0.00506792455273164,-0.000988321664122438,0.0003986858347566624,-0.5758307794057017,-0.17607608671320576,0.03891304162823278,0.6029413488676204,0.16568068120607937,-0.04493639641680924
11647000000,11406,11647000000,,base_to_link1,link1_to_link2,link2_to_link3,-0.005679302630470673,-0.0011378683728224814,0.00030792475352470206,-0.6113780953172262,-0.14954657108797786,-0.09076108068116909,0.6265100249330181,0.13814796425213777,-0.3319013479357518
11648000000,11407,11648000000,,base_to_link1,link1_to_link2,link2_to_link3,-0.006327682702641724,-0.001243528817152395,2.95248464645681e-05,-0.648380093281069,-0.10566029755253727,-0.27840066495633076,0.6681711216219329,0.06539127368822407,-0.49016393829312177
11649000000,11408,11649000000,,base_to_link1,link1_to_link2,link2_to_link3,-0.00700813510361975,-0.0013000663543110136,-0.00046328444095422583,-0.6804524261014449,-0.05653742973718834,-0.4928082737121491,0.7116569203074863,-0.025066724162661633,-0.5883973774709049
11650000000,11409,11650000000,,base_to_link1,link1_to_link2,link2_to_link3,-0.007713647815068114,-0.0013074526081968685,-0.001183081864629898,-0.7055127403317686,-0.007386205958815007,-0.7197973833306878,0.7505337771376424,-0.12115261590776524,-0.657501220933451
11651000000,11410,11651000000,,base_to_link1,link1_to_link2,link2_to_link3,-0.008436948158939472,-0.0012678093299873794,-0.0021358789048999682,-0.7233003756640428,0.03964327268326415,-0.9527969848116542,0.7826492184824497,-0.21765283080075368,-0.711506028264277
11652000000,11411,11652000000,,base_to_link1,link1_to_link2,link2_to_link3,-0.009171230837027977,-0.0011840650156553778,-0.0033245390462752766,-0.7342827117829622,0.08374426558552592,-1.1886601127150083,0.8076698572534375,-0.3123904340401997,-0.7568925171856087
11653000000,11412,11653000000,,base_to_link1,link1_to_link2,link2_to_link3,-0.009910409028213607,-0.0010593736568491607,-0.004750331010733078,-0.7391782258647155,0.12469127119449953,-1.4257919943842334,0.825995020153242,-0.404523783872353,-0.7967488418166768
11654000000,11413,11654000000,,base_to_link1,link1_to_link2,link2_to_link3,-0.01064916215065459,-0.0008968710723262774,-0.00641364349048601,-0.7387531573015792,0.16250245805618202,-1.6633126026102054,0.8382823161468516,-0.49379022263691874,-0.8326269111195459
11655000000,11414,11655000000,,base_to_link1,link1_to_link2,link2_to_link3,-0.011382901041210758,-0.000699579721111121,-0.008314323876259522,-0.733738924893529,0.19729118487345224,-1.9006806397093419,0.8452447788081251,-0.5801709445018597,-0.8653726889057747
11656000000,11415,11656000000,,base_to_link1,link1_to_link2,link2_to_link3,-0.01210770333349842,-0.0004703779915331552,-0.010451846904572903,-0.724802325486559,0.22920152247927839,-2.1375234554729947,0.8475679353056366,-0.663743467389354,-0.895498822476231
11657000000,11416,11657000000,,base_to_link1,link1_to_link2,link2_to_link3,-0.012820241686771539,-0.00021199678598815552,-0.01282540528580256,-0.7125383848190033,0.25838095685597345,-2.37355902786319,0.8458793588215432,-0.7446174620587311,-0.9233530381996964
11658000000,11417,11658000000,,base_to_link1,link1_to_link2,link2_to_link3,-0.013517714208251874,7.297297955499715e-05,-0.015433963626069414,-0.6974725509429607,0.2849694713364076,-2.6085592567799134,0.8407408016867187,-0.8229074892778936,-0.9491952545349314
11659000000,11418,11659000000,,base_to_link1,link1_to_link2,link2_to_link3,-0.01419778056608223,0.0003820690929909887,-0.018276294304943264,-0.6800663848602836,0.3090957776558633,-2.8423319198751487,0.8326496930254794,-0.8987220070295537,-0.9732337490452982
11660000000,11419,11660000000,,base_to_link1,link1_to_link2,link2_to_link3,-0.014858504762523594,0.000712946076444787,-0.021351003837413174,-0.6607242207543856,0.33087659978258077,-3.0747111567738328,0.8220441905211059,-0.9721594887376166,-0.9956428438084304
11661000000,11420,11661000000,,base_to_link1,link1_to_link2,link2_to_link3,-0.015498304483932301,0.0010633637069643598,-0.024656553704209827,-0.6397997427688652,0.3504171979785785,-3.3055519374270426,0.8093092683796216,-1.0433075874010584,-1.0165721575737967
11662000000,11421,11662000000,,base_to_link1,link1_to_link2,link2_to_link3,-0.016115906540385083,0.0014311765299508394,-0.028191277588764052,-0.6176020746658167,0.36781233959667525,-3.534726468730416,0.7947827876081882,-1.112243544862047,-1.0361519291083368
11663000000,11422,11663000000,,base_to_link1,link1_to_link2,link2_to_link3,-0.01671030778408955,0.001814324442886317,-0.03195339602801717,-0.5944012585990309,0.3831473766658209,-3.7621216083499904,0.7787611400696676,-1.179035057736948,-1.0544964382066504
11664000000,11423,11664000000,,base_to_link1,link1_to_link2,link2_to_link3,-0.01728074088893372,0.002210824324649252,-0.035941029051134166,-0.5704331162714197,0.3964992905869042,-3.987636852609721,0.7615043364399264,-1.243741260839075,-1.0717064453578526
11665000000,11424,11665000000,,base_to_link1,link1_to_link2,link2_to_link3,-0.017826644413103665,0.0026187626244569273,-0.04015220717103141,-0.5459035319863795,0.40793765172753077,-4.211182689279475,0.7432405251607569,-1.306413688167763,-1.0878710774716405
11666000000,11425,11666000000,,base_to_link1,link1_to_link2,link2_to_link3,-0.01834763662178851,0.0030362888108586006,-0.0445848809867222,-0.5209922127554684,0.41752547946029683,-4.432679208373474,0.7241699761174162,-1.3670971583923326,-1.1030693651735453
11667000000,11426,11667000000,,base_to_link1,link1_to_link2,link2_to_link3,-0.018843492604634804,0.0034616095825450444,-0.04923692959506454,-0.49585598303394873,0.42532000397152225,-4.652054911527104,0.7044685789733535,-1.425830569380412,-1.1173715359837741
11668000000,11427,11668000000,,base_to_link1,link1_to_link2,link2_to_link3,-0.019314124277045153,0.0038929837501520126,-0.054106167973579034,-0.4706316685738688,0.43137333724738874,-4.8692456830585416,0.6842909090802968,-1.4826476021148878,-1.1308401208236631
11669000000,11428,11669000000,,base_to_link1,link1_to_link2,link2_to_link3,-0.019759562903960415,0.004328717707460683,-0.05919035347038992,-0.4454386189048004,0.43573306247352844,-5.084193897069005,0.6637729113443203,-1.5375773404978024,-1.1435309091241406
11670000000,11429,11670000000,,base_to_link1,link1_to_link2,link2_to_link3,-0.020179943828885882,0.004767161419735544,-0.06448719151782178,-0.420380912590556,0.4384427511629311,-5.296847641084561,0.6430342479444046,-1.5906448154622568,-1.155493776828055
11671000000,11430,11671000000,,base_to_link1,link1_to_link2,link2_to_link3,-0.02057549313001772,0.0052067048656194714,-0.06999434067044952,-0.3955492843046566,0.4395424167127414,-5.507160040500686,0.6221803508794148,-1.6418714819834297,-1.1667734056106465
11672000000,11431,11672000000,,base_to_link1,link1_to_link2,link2_to_link3,-0.02094651595959718,0.0056457748768758975,-0.07570941705522749,-0.37102280809247196,0.4390689122535163,-5.715088670657671,0.6013042156048338,-1.6912756370544413,-1.1774099080552585
11673000000,11432,11673000000,,base_to_link1,link1_to_link2,link2_to_link3,-0.02129338635291589,0.006082832327276577,-0.08162999831008477,-0.34687036699742435,0.43705627978802936,-5.920595045279159,0.5804879676884438,-1.7388727859331323,-1.1874393710773568
11674000000,11433,11674000000,,base_to_link1,link1_to_link2,link2_to_link3,-0.02161653831977617,0.006516369628075225,-0.08775362707754653,-0.32315193552086247,0.4335360567822339,-6.123644171515274,0.5598042305265832,-1.78467596316954,-1.1968943280985647
11675000000,11434,11675000000,,base_to_link1,link1_to_link2,link2_to_link3,-0.021916458054430876,0.006944908492955371,-0.09407781411152882,-0.29991969811781144,0.4285375456280388,-6.324204163099057,0.5393173187186242,-1.8286960141516937,-1.2058041690680739
11676000000,11435,11676000000,,base_to_link1,link1_to_link2,link2_to_link3,-0.022193677120418087,0.007366997940045472,-0.10060004104798992,-0.27721902406854365,0.4220880507251853,-6.522245904195277,0.5190842786621201,-1.8709418422180009,-1.2141954962389825
11677000000,11436,11677000000,,base_to_link1,link1_to_link2,link2_to_link3,-0.02244876648444638,0.007781212502813162,-0.10731776288361772,-0.25508931655159006,0.41421308734053164,-6.717742757451977,0.4991557952727245,-1.9114206257589919,-1.2220924326112552
11678000000,11437,11678000000,,base_to_link1,link1_to_link2,link2_to_link3,-0.022682331289205493,0.008186150625228095,-0.11422841020111996,-0.2335647515474817,0.40493656588778687,-6.91067031057695,0.47957698139605387,-1.9501380091858527,-1.2295168890952635
11679000000,11438,11679000000,,base_to_link1,link1_to_link2,link2_to_link3,-0.02289500626859109,0.008580433219814054,-0.12132939117461028,-0.21267492027998547,0.39428095481036407,-7.1010061564601115,0.4603880644395366,-1.987098271161538,-1.2364887956807094
11680000000,11439,11680000000,,base_to_link1,link1_to_link2,link2_to_link3,-0.02308745172096316,0.008962702369981201,-0.12861809338433083,-0.19244538721843774,0.38226742485805426,-7.288729702485615,0.44162498296589636,-2.022304473064236,-1.2430263012611054
11681000000,11440,11681000000,,base_to_link1,link1_to_link2,link2_to_link3,-0.023260349966488292,0.00933162016047362,-0.13609188546603335,-0.17289817419017625,0.3689159771945405,-7.473822005211942,0.4233199044280693,-2.055758590287494,-1.2491459461751608
11682000000,11441,11682000000,,base_to_link1,link1_to_link2,link2_to_link3,-0.02341440222398994,0.009685867621886501,-0.14374811861707215,-0.1540521798690019,0.3542455574726709,-7.656265627071403,0.4055016738550592,-2.0874616286519903,-1.2548628110314457
11683000000,11442,11683000000,,base_to_link1,link1_to_link2,link2_to_link3,-0.023550325850790088,0.01002414377710803,-0.15158412797827836,-0.1359235427788926,0.33827415774349257,-7.836044512155244,0.38819620210890127,-2.117413727926059,-1.2601906449486853
11684000000,11443,11684000000,,base_to_link1,link1_to_link2,link2_to_link3,-0.023668851896228915,0.01034516477914682,-0.1595972339081122,-0.11852595496348775,0.3210189078355681,-8.0131438785116,0.3714268012867935,-2.1456142541992858,-1.2651419759526004
11685000000,11444,11685000000,,base_to_link1,link1_to_link2,link2_to_link3,-0.023770722925810617,0.010647663131236662,-0.16778474316339853,-0.10187093261796035,0.3024961576349483,-8.187550124699685,0.3552144739257769,-2.1720618826398246,-1.2697282059347863
11686000000,11445,11686000000,,base_to_link1,link1_to_link2,link2_to_link3,-0.02385669107848365,0.010930386981401696,-0.1761439499988633,-0.08596804921838211,0.28272155151821976,-8.359250748626252,0.3395781618760665,-2.196754671975723,-1.2739596922930598
11687000000,11446,11687000000,,base_to_link1,link1_to_link2,link2_to_link3,-0.02392751632442014,0.011192099484703455,-0.18467213719607045,-0.07082513602919487,0.2617100960359614,-8.528234276927295,0.3245349600032186,-2.219690131873353,-1.2778458180979868
11688000000,11447,11688000000,,base_to_link1,link1_to_link2,link2_to_link3,-0.023983964894993548,0.011431578227404593,-0.19336657703075488,-0.05644845428670196,0.23947622180569764,-8.694490203380685,0.3101002992733963,-2.2408652842434496,-1.2813950524225124
11689000000,11448,11689000000,,base_to_link1,link1_to_link2,link2_to_link3,-0.024026807860389354,0.011647614708089726,-0.20222453218626946,-0.04284284285030097,0.21603384045384513,-8.85800893501554,0.29628810323663746,-2.260276719375819,-1.2846150022566798
11690000000,11449,11690000000,,base_to_link1,link1_to_link2,link2_to_link3,-0.024056819833697674,0.011839013871537851,-0.21124325661966203,-0.030011844668797746,0.19139639734254843,-9.018781744755133,0.28311092145419453,-2.2779206476922655,-1.2875124572624186
11691000000,11450,11691000000,,base_to_link1,link1_to_link2,link2_to_link3,-0.024074777783235746,0.01200459369177409,-0.22041999638591214,-0.01795781501217309,0.16557692072351768,-9.176800729573522,0.2705800430057745,-2.293792947812279,-1.2900934284705672
11692000000,11451,11692000000,,base_to_link1,link1_to_link2,link2_to_link3,-0.024081459937457694,0.012143184801303164,-0.22975199042493877,-0.006682014077646154,0.13858806787925856,-9.332058773272266,0.25870559284453054,-2.307889211537461,-1.2923631818825276
11693000000,11452,11693000000,,base_to_link1,link1_to_link2,link2_to_link3,-0.024077644769179507,0.012253630164004825,-0.23923647131521797,0.0038153137284295904,0.11044216874310983,-9.484549513099838,0.2474966134522231,-2.3202047862848776,-1.2943262678219156
11694000000,11453,11694000000,,base_to_link1,link1_to_link2,link2_to_link3,-0.024064110047769205,0.012334784789604036,-0.24887066599718644,0.013534871803410899,0.08115126742443793,-9.634267309534925,0.2369611339633655,-2.33073481543632,-1.2959865467807443
11695000000,11454,11695000000,,base_to_link1,link1_to_link2,link2_to_link3,-0.02404163194981912,0.012385515488023024,-0.25865179646898717,0.022478252863324107,0.05072716200938097,-9.781207218639265,0.22710622867428115,-2.3394742770079477,-1.2973472124005436
11696000000,11455,11696000000,,base_to_link1,link1_to_link2,link2_to_link3,-0.02401098422039194,0.012404700662213664,-0.26857708045662854,0.03064788838895138,0.019181442960394656,-9.925364966470267,0.2179380666348671,-2.3464180209946663,-1.2984108121627482
11697000000,11456,11697000000,,base_to_link1,link1_to_link2,link2_to_link3,-0.023972937378266224,0.012391230138384834,-0.27864373206016246,0.038047004610663675,-0.0134744696093509,-10.066736925105952,0.20946195381496802,-2.351560805698103,-1.2991792662751003
11698000000,11457,11698000000,,base_to_link1,link1_to_link2,link2_to_link3,-0.023928257959869192,0.012344005032773886,-0.2888489623771111,0.044679583826518536,-0.047229289544260186,-10.205320089901837,0.20168236917199855,-2.3548973333030596,-1.2996538851836537
11699000000,11458,11699000000,,base_to_link1,link1_to_link2,link2_to_link3,-0.023877707797625547,0.012261937654320043,-0.29918998010405495,0.05055032998964689,-0.08207182893831909,-10.341112057648441,0.19460299577217338,-2.356422284937058,-1.299835386082262
11700000000,11459,11700000000,,base_to_link1,link1_to_link2,link2_to_link3,-0.023822043329365883,0.012143951442816991,-0.30966399211698636,0.055664637646954944,-0.11799096293185338,-10.474111005351952,0.18822674798660857,-2.356130355405143,-1.2997239087398391
11701000000,11460,11701000000,,base_to_link1,link1_to_link2,link2_to_link3,-0.023762014936236753,0.011988980942263971,-0.3202682040308371,0.060028563435531555,-0.1549755948729783,-10.60431566940015,0.18255579564670388,-2.3540162877744493,-1.2993190309146563
11702000000,11461,11702000000,,base_to_link1,link1_to_link2,link2_to_link3,-0.02369836630724631,0.011795971809307026,-0.3309998207383469,0.06364879945596821,-0.19301462171996026,-10.731725324915326,0.17759158592683597,-2.350074907946496,-1.2986197835948428
11703000000,11462,11703000000,,base_to_link1,link1_to_link2,link2_to_link3,-0.02363183382912659,0.011563880856832576,-0.3418560469283083,0.06653264794501212,-0.23209689958874302,-10.856339765131866,0.1733348636164949,-2.3443011593390244,-1.2976246662553148
11704000000,11463,11704000000,,base_to_link1,link1_to_link2,link2_to_link3,-0.023563146000713076,0.011291676132937134,-0.35283408758307466,0.06868799676885737,-0.272211209367833,-10.978159280664041,0.1697856903462538,-2.336690137774504,-1.2963316622983578
11705000000,11464,11705000000,,base_to_link1,link1_to_link2,link2_to_link3,-0.02349302287141075,0.010978337035697727,-0.36393114845512464,0.07012329533316164,-0.31334622234102993,-11.097184638561318,0.1669434632382734,-2.327237126655042,-1.2947382548113895
11706000000,11465,11706000000,,base_to_link1,link1_to_link2,link2_to_link3,-0.023422175503642784,0.010622854464462428,-0.3751444365223726,0.07084753059863409,-0.3554904657768834,-11.213417061065929,0.16480693338094587,-2.315937632487157,-1.2928414427447548
11707000000,11466,11707000000,,base_to_link1,link1_to_link2,link2_to_link3,-0.023351305459443417,0.010224231008819196,-0.3864711604218911,0.07087020294449502,-0.39863228845461113,-11.32685820401939,0.16337422443779376,-2.302787420805328,-1.2906377576016963
11708000000,11467,11708000000,,base_to_link1,link1_to_link2,link2_to_link3,-0.023281104311506873,0.00978148117707267,-0.39790853086163125,0.07020130170239466,-0.44275982611640524,-11.437510134869326,0.16264285164993914,-2.287782552535856,-1.288123280695169
11709000000,11468,11709000000,,base_to_link1,link1_to_link2,link2_to_link3,-0.02321225317918163,0.009293631667309121,-0.4094537610097362,0.06885128022635882,-0.4878609668406536,-11.545375310260486,0.16260974141267406,-2.2709194208291263,-1.2852936610224521
11710000000,11469,11710000000,,base_to_link1,link1_to_link2,link2_to_link3,-0.023145422289909234,0.008759721686344868,-0.4211040668610053,0.06683103042957318,-0.5339233163496832,-11.65045655319157,0.16327125156545746,-2.2521947883972393,-1.2821441337825688
11711000000,11470,11711000000,,base_to_link1,link1_to_link2,link2_to_link3,-0.023081270566713386,0.008178803326202022,-0.43285666758007935,0.06415185675303137,-0.5809341632735173,-11.752757029737564,0.16462319246951918,-2.231605825395596,-1.2786695395534426
11712000000,11471,11712000000,,base_to_link1,link1_to_link2,link2_to_link3,-0.02302044524225444,0.007549942016612299,-0.44470878582091977,0.06082544958924868,-0.6288804444046182,-11.852280225339326,0.1666608489141025,-2.2091501479239377,-1.2748643441382823
11713000000,11472,11713000000,,base_to_link1,link1_to_link2,link2_to_link3,-0.022963581499955588,0.006872217091344446,-0.4566576480221194,0.0568638582112857,-0.6777487099962477,-11.949029920657047,0.1693790028332957,-2.1848258572967607,-1.2707226590818186
11714000000,11473,11714000000,,base_to_link1,link1_to_link2,link2_to_link3,-0.022911302142591516,0.006144722551865378,-0.46870048467762615,0.052279463313788604,-0.7275250891876797,-12.043010166954165,0.17277195678827018,-2.1586315804080165,-1.266238262862366
11715000000,11474,11715000000,,base_to_link1,link1_to_link2,link2_to_link3,-0.02286421728856247,0.005366568230333435,-0.48083453058226056,0.04708494932753473,-0.7781952556869135,-12.134225260917336,0.17683355811212656,-2.1305665119427344,-1.2614046228021714
11716000000,11475,11716000000,,base_to_link1,link1_to_link2,link2_to_link3,-0.02282292409580222,0.00453688190347723,-0.4930570250512041,0.04129327677867168,-0.8297443939781648,-12.222679718618656,0.18155722355808998,-2.100630460324047,-1.2562149177910102
11717000000,11476,11717000000,,base_to_link1,link1_to_link2,link2_to_link3,-0.022788006512749703,0.0036548141248191612,-0.505365212111748,0.03491765523316614,-0.8821571666669308,-12.30837824777953,0.18693596417935054,-2.0688239026445903,-1.2506620621295887
11718000000,11477,11718000000,,base_to_link1,link1_to_link2,link2_to_link3,-0.02276003505440194,0.0027195529213637215,-0.517756340662876,0.027971518208806133,-0.9354176847460325,-12.39132571560227,0.1929624098943309,-2.035148065643717,-1.2447387313487726
11719000000,11478,11719000000,,base_to_link1,link1_to_link2,link2_to_link3,-0.02273956659656129,0.0017303905783032647,-0.5302276645874517,0.020468504982813364,-0.9895094874499079,-12.471527101374548,0.19962883233521325,-1.9996051024082067,-1.2384373927810293
11720000000,11479,11720000000,,base_to_link1,link1_to_link2,link2_to_link3,-0.022727144154697676,0.0006874200259021634,-0.5427764427404682,0.012422475977440372,-1.0444155684972707,-12.548987372530767,0.20692716098279954,-1.9621987803651013,-1.2317503518346884
11721000000,11480,11721000000,,base_to_link1,link1_to_link2,link2_to_link3,-0.022723296275141358,-0.0004190249912481292,-0.5553999379404146,0.00384790042641444,-1.1001189169051646,-12.623710487759533,0.2148489655695364,-1.9229414189079599,-1.2246698760505739
11722000000,11481,11722000000,,base_to_link1,link1_to_link2,link2_to_link3,-0.022728542086006165,-0.001572726166737759,-0.5680954294654477,-0.005245803432909339,-1.1565947054348438,-12.695712902079858,0.22338506232499913,-1.8817477502752091,-1.2171892020798243
11723000000,11482,11723000000,,base_to_link1,link1_to_link2,link2_to_link3,-0.022743379921787543,-0.0027861026125384214,-0.5808601849177908,-0.01483784172083389,-1.2138329455160342,-12.764982934158207,0.232531224292971,-1.8387991685792573,-1.209288905646492
11723000000,11483,11724000000,,base_to_link1,link1_to_link2,link2_to_link3,-0.022768296570601088,-0.00405772641588964,-0.5936914844126573,-0.02491666808908598,-1.2718100919460562,-12.83153309209121,0.24227164093870932,-1.7939758550802811,-1.2009778155870299
11725000000,11484,11725000000,,base_to_link1,link1_to_link2,link2_to_link3,-0.02280376480630597,-0.005388130091520615,-0.6065866139723095,-0.03546826816983935,-1.3305051307769225,-12.89536927774539,0.25259963379509687,-1.7473100179181025,-1.1922404461771476
11726000000,11485,11726000000,,base_to_link1,link1_to_link2,link2_to_link3,-0.022850243208707433,-0.006777962582158459,-0.6195428650144432,-0.04647844780614248,-1.3898964728336964,-12.956496881255607,0.26350591623289904,-1.6988117297030445,-1.183067858852838
11727000000,11486,11727000000,,base_to_link1,link1_to_link2,link2_to_link3,-0.02290817617215435,-0.008227880135367904,-0.6325575342734613,-0.05793302144619522,-1.4499616949252363,-13.014921213928625,0.2749808798932168,-1.648490473992327,-1.1734515728269308
11728000000,11487,11728000000,,base_to_link1,link1_to_link2,link2_to_link3,-0.02297799393540334,-0.009738525265681197,-0.6456279237265807,-0.06981783341354915,-1.510677498414826,-13.070647513077668,0.2870147831677387,-1.5963564953110103,-1.1633831329732764
11729000000,11488,11729000000,,base_to_link1,link1_to_link2,link2_to_link3,-0.023060112624404105,-0.01131052014237266,-0.658751340490344,-0.08211877082557047,-1.5720196854513684,-13.123680912408739,0.29959777276758254,-1.542421050960104,-1.1528541057316026
11730000000,11489,11730000000,,base_to_link1,link1_to_link2,link2_to_link3,-0.023154934314333353,-0.012944463605108147,-0.6719250966998178,-0.09482178283738861,-1.63396312938376,-13.1740264247335,0.3127198970696115,-1.486696500907508,-1.1418561097549915
11731000000,11490,11731000000,,base_to_link1,link1_to_link2,link2_to_link3,-0.023262847109605467,-0.014640929339576836,-0.685146509371755,-0.10791289861531014,-1.6964817456714165,-13.221688925905253,0.32637112598072215,-1.429196367217285,-1.130380834406222
11732000000,11491,11732000000,,base_to_link1,link1_to_link2,link2_to_link3,-0.023384225237903955,-0.01640046448473509,-0.6984129002476358,-0.12137824137991791,-1.7595484663049317,-13.266673134710569,0.34054136971136484,-1.369935381382685,-1.1184200571891116
11733000000,11492,11733000000,,base_to_link1,link1_to_link2,link2_to_link3,-0.023519429155453686,-0.01822358841545313,-0.7117215956147636,-0.13520403961553423,-1.8231352167177097,-13.308983590921388,0.3552204937589575,-1.3089295238331187,-1.1059656654269574
11734000000,11493,11734000000,,base_to_link1,link1_to_link2,link2_to_link3,-0.023668805661615444,-0.02011079159801188,-0.7250699261059292,-0.14937663642670654,-1.887212894057107,-13.34862463385885,0.3703983311700711,-1.2461960591960959,-1.093009679999886
11735000000,11494,11735000000,,base_to_link1,link1_to_link2,link2_to_link3,-0.02383268802116323,-0.02206253447355966,-0.7384552264786972,-0.16388249719014086,-1.9517513466029677,-13.385600382021263,0.38606469304286095,-1.1817535694710122,-1.079544278783506
11736000000,11495,11736000000,,base_to_link1,link1_to_link2,link2_to_link3,-0.024011396092359583,-0.024079246348734706,-0.7518748353751992,-0.17870821538181014,-2.016719354511164,-13.419914713574004,0.40220937740177315,-1.1156219857761063,-1.0655618192285417
11737000000,11496,11737000000,,base_to_link1,link1_to_link2,link2_to_link3,-0.024205236459011736,-0.026161324283617837,-0.7653260950630791,-0.193840516531727,-2.0820846120354752,-13.451571247534774,0.41882217630540597,-1.0478226186987358,-1.0510548602733847
11738000000,11497,11738000000,,base_to_link1,link1_to_link2,link2_to_link3,-0.02441450256460076,-0.028309131972533486,-0.7788063511583214,-0.20926626031448628,-2.1478137113244484,-13.48057332560943,0.4358928811218443,-0.9783781871938593,-1.036016183748421
11739000000,11498,11739000000,,base_to_link1,link1_to_link2,link2_to_link3,-0.024639474846673615,-0.030522998615885477,-0.7923129523305068,-0.22497244080088225,-2.213872127873046,-13.506923994673294,0.45341128596049385,-0.9073128459793036,-1.0204388153130335
11740000000,11499,11740000000,,base_to_link1,link1_to_link2,link2_to_link3,-0.024880420869668463,-0.03280321778276285,-0.8058432499912218,-0.2409461849008865,-2.2802242077198756,-13.530625989874316,0.4713671892676184,-0.8346522113656292,-1.0043160449207669
11741000000,11500,11741000000,,base_to_link1,link1_to_link2,link2_to_link3,-0.025137595454418182,-0.035150046264930346,-0.819394597966129,-0.2571747490313132,-2.3468331564818046,-13.55168171834188,0.4897503935975711,-0.7604233854329068,-0.9876414468324848
11742000000,11501,11742000000,,base_to_link1,link1_to_link2,link2_to_link3,-0.025411240802591273,-0.037563702923336884,-0.8329643521513574,-0.27364551406263166,-2.413661030317831,-13.570093243478805,0.508550703575495,-0.6846549784562272,-0.970408899187241
11743000000,11502,11743000000,,base_to_link1,link1_to_link2,link2_to_link3,-0.025701586614432337,-0.04004436752872653,-0.8465498701547407,-0.2903459785999439,-2.4806687289136704,-13.585862269828134,0.5277579220885444,-0.6073771294766708,-0.9526126031455995
11744000000,11503,11744000000,,base_to_link1,link1_to_link2,link2_to_link3,-0.02600885019816257,-0.042592179598078594,-0.8601485109224889,-0.30726375067093753,-2.5478159905783007,-13.59899012849959,0.5473618447442672,-0.5286215249106552,-0.9342471016108851
11745000000,11504,11745000000,,base_to_link1,link1_to_link2,link2_to_link3,-0.02633323656958897,-0.04520723722890185,-0.8737576343518167,-0.3243865379002596,-2.615061389544699,-13.60947776314644,0.5673522526525632,-0.44842141508901,-0.9153072975363079
11746000000,11505,11746000000,,base_to_link1,link1_to_link2,link2_to_link3,-0.026674938540430126,-0.04788959593350928,-0.8873746008901033,-0.3417021362551647,-2.6823623355662933,-13.617325716487658,0.5877189035961493,-0.36681162861322614,-0.8957884718210405
11747000000,11506,11747000000,,base_to_link1,link1_to_link2,link2_to_link3,-0.027034136794077845,-0.050639267475580674,-0.9009967711210827,-0.359198417460175,-2.749675075904667,-13.622534117360125,0.6084515216594659,-0.2838285844163537,-0.8756863007973461
11748000000,11507,11748000000,,base_to_link1,link1_to_link2,link2_to_link3,-0.02741099994754226,-0.05345621871140427,-0.9146215053386264,-0.3768633151828893,-2.8169546997979893,-13.625102668303981,0.6295397854009535,-0.1995103014095827,-0.8549968733157005
11749000000,11508,11749000000,,base_to_link1,link1_to_link2,link2_to_link3,-0.027805684598445346,-0.0563403704383143,-0.9282461631086107,-0.3946848100972344,-2.8841551455069165,-13.625030633670598,0.6509733146583119,-0.11389640560142578,-0.8337167074219458
11750000000,11509,11750000000,,base_to_link1,link1_to_link2,link2_to_link3,-0.028218335356094748,-0.05929159625297853,-0.9418681028194182,-0.4126509139416335,-2.951229210027364,-13.622316828254986,0.6727416560816879,-0.027028134567483875,-0.8118427666309733
11751000000,11510,11751000000,,base_to_link1,link1_to_link2,link2_to_link3,-0.028649084855715934,-0.06230972142225699,-0.9554846812215718,-0.4307496526879387,-3.0181285615655367,-13.61695960645251,0.6948342675025809,0.06105166084525937,-0.7893724757886487
11751000000,11511,11752000000,,base_to_link1,link1_to_link2,link2_to_link3,-0.029098053755087783,-0.06539452176944938,-0.9690932529570535,-0.44896904894270245,-3.0848037548657783,-13.60895685194134,0.717240501245098,0.15029851770203484,-0.7663037365190846
11753000000,11512,11753000000,,base_to_link1,link1_to_link2,link2_to_link3,-0.029565350712936755,-0.06854572257888325,-0.9826911700788177,-0.4672971037059525,-3.1512042494818417,-13.598305967899963,0.7399495864935803,0.2406663651705947,-0.7426349422492917
11754000000,11513,11754000000,,base_to_link1,link1_to_link2,link2_to_link3,-0.030051072348570962,-0.071762997521847,-0.9962757815610441,-0.48572177760973423,-3.217278431082568,-13.585003867764247,0.7629506108353201,0.3321075318383908,-0.718364992795876
11755000000,11514,11755000000,,base_to_link1,link1_to_link2,link2_to_link3,-0.03055530318236155,-0.07504596760699567,-1.0098444328007012,-0.5042309717621742,-3.2829736358813086,-13.569046966537766,0.7862325010954438,0.4245727562775623,-0.6934933085061461
11756000000,11515,11756000000,,base_to_link1,link1_to_link2,link2_to_link3,-0.031078115556788966,-0.07839420015841281,-1.0233944651109539,-0.5228125083195296,-3.348236178274051,-13.550431172672909,0.8097840035857897,0.5180112009784343,-0.6680198439315692
11757000000,11516,11757000000,,base_to_link1,link1_to_link2,link2_to_link3,-0.03161956953791911,-0.08180720782464501,-1.036923215207029,-0.5414541109063123,-3.4130113817750396,-13.529151880533115,0.8335936638874193,0.612370469768253,-0.6419451010128245
11758000000,11517,11758000000,,base_to_link1,link1_to_link2,link2_to_link3,-0.03217971279725784,-0.08528444762205556,-1.0504280146851315,-0.5601433850025161,-3.4772436133318503,-13.505203963466336,0.8576498062855035,0.7075966288371389,-0.615270141759181
11759000000,11518,11759000000,,base_to_link1,link1_to_link2,link2_to_link3,-0.03275858047407976,-0.08882532001598431,-1.063906189495036,-0.5788677984108423,-3.5408763211023735,-13.478581767504568,0.8819405129750946,0.8036342314867277,-0.587996600385372
11760000000,11519,11760000000,,base_to_link1,link1_to_link2,link2_to_link3,-0.03335619501841247,-0.09242916804322743,-1.0773550594070258,-0.5976146619172796,-3.6038520757716763,-13.449279105724122,0.9064536031516399,0.9004263467187217,-0.560126694886379
11761000000,11520,11761000000,,base_to_link1,link1_to_link2,link2_to_link3,-0.033972566014981886,-0.0960952764794678,-1.0907719374738551,-0.6163711102497992,-3.6661126154865498,-13.417289253291624,0.9311766121014043,0.9979145917765764,-0.5316632380080204
11762000000,11521,11762000000,,base_to_link1,link1_to_link2,link2_to_link3,-0.03460768998852348,-0.09982287105532262,-1.1041541294884354,-0.6351240834433753,-3.7275988944760274,-13.38260494323159,0.956096770399618,1.0960391687543196,-0.5026096475807833
11763000000,11522,11763000000,,base_to_link1,link1_to_link2,link2_to_link3,-0.03526155019096411,-0.1036111177247987,-1.1174989334380534,-0.6538603087133537,-3.7882511354295043,-13.345218362950202,0.9812009833286102,1.1947389053775859,-0.4729699561759979
11764000000,11523,11764000000,,base_to_link1,link1_to_link2,link2_to_link3,-0.03593411637109245,-0.10745912198991636,-1.130803638955861,-0.6725662829410612,-3.8480088856900903,-13.305121151556023,1.0064758106229947,1.2939513000662513,-0.44274882003934213
11765000000,11524,11765000000,,base_to_link1,link1_to_link2,link2_to_link3,-0.03662534452742339,-0.11136592828543801,-1.1440655267705022,-0.6912282558742786,-3.906811077318735,-13.262304398021332,1.0319074466519857,1.3936125713740535,-0.41195152725549544
11766000000,11525,11766000000,,base_to_link1,link1_to_link2,link2_to_link3,-0.03733517664509467,-0.11533051942754557,-1.157281868154774,-0.7098322141525509,-3.964596091079203,-13.216758640226285,1.0574817011485125,1.4936577118999823,-0.3805840050906548
11767000000,11526,11767000000,,base_to_link1,link1_to_link2,link2_to_link3,-0.03806354041772142,-0.11935181613049028,-1.1704499243742124,-0.7283638662662154,-4.021301824374332,-13.168473864941028,1.0831839806034975,1.5940205467600395,-0.34865282646143925
11768000000,11527,11768000000,,base_to_link1,link1_to_link2,link2_to_link3,-0.03881034895525648,-0.12342867659515466,-1.1835669461366525,-0.7468086285656245,-4.076865763166405,-13.117439508795247,1.1089992704434297,1.6946337966899963,-0.3161652154671266
11769000000,11528,11769000000,,base_to_link1,link1_to_link2,link2_to_link3,-0.03957550047903435,-0.12755989617351648,-1.1966301730437383,-0.7651516124465968,-4.131225057890967,-13.063644460292878,1.1349121181181894,1.7954291458513802,-0.2831290519245515
11770000000,11529,11770000000,,base_to_link1,link1_to_link2,link2_to_link3,-0.04035887800531679,-0.13174420711305057,-1.2096368330455558,-0.7833776128405158,-4.184316603365963,-13.00707706293313,1.1609066172369404,1.8963373143899318,-0.24955287483809308
11771000000,11530,11771000000,,base_to_link1,link1_to_link2,link2_to_link3,-0.04116034901875221,-0.1359802783849977,-1.2225841418995067,-0.8014710981515056,-4.236077122680296,-12.947725119499566,1.1869663928936838,1.9972881357887644,-0.21544588473253512
11772000000,11531,11772000000,,base_to_link1,link1_to_link2,link2_to_link3,-0.04197976513740098,-0.140266715600478,-1.2354693026346713,-0.8194162017847055,-4.286443255028604,-12.885575897587437,1.2130745883390277,2.0982106390396114,-0.18081794477508772
11773000000,11532,11773000000,,base_to_link1,link1_to_link2,link2_to_link3,-0.04281696177098393,-0.14460206101834583,-1.2482895050229939,-0.837196715421021,-4.335351647445079,-12.820616136431783,1.2392138531587154,2.199033135638718,-0.1456795806044795
11774000000,11533,11774000000,,base_to_link1,link1_to_link2,link2_to_link3,-0.04367175777436838,-0.14898479364859174,-1.2610419250586151,-0.8547960841993697,-4.382739050362336,-12.752832055117828,1.2653663331308604,2.2996833113992565,-0.1100419787910738
11775000000,11534,11775000000,,base_to_link1,link1_to_link2,link2_to_link3,-0.044543955098260035,-0.1534133294550566,-1.273723724446862,-0.8721974039671279,-4.428542416914635,-12.682209362233646,1.2915136619430534,2.4000883230441605,-0.07391698383304579
11776000000,11535,11776000000,,base_to_link1,link1_to_link2,link2_to_link3,-0.04543333843940989,-0.15788602166107513,-1.28633205010434,-0.8893834207676614,-4.472699005869951,-12.608733267048493,1.3176369549497282,2.500174899536508,-0.037317093613816965
11777000000,11536,11777000000,,base_to_link1,link1_to_link2,link2_to_link3,-0.04633967489269697,-0.16240116116155345,-1.2988640336718191,-0.9063365327274419,-4.515146488064885,-12.532388492283488,1.3437168051617603,2.5998694480680564,-0.00025545322293840655
11778000000,11537,11778000000,,base_to_link1,link1_to_link2,link2_to_link3,-0.04726271360765555,-0.16695697704483958,-1.3113167910414667,-0.9230387945063957,-4.555823056196865,-12.453159288543471,1.3697332816544114,2.6990981646148713,0.037254152943644314
11779000000,11538,11779000000,,base_to_link1,link1_to_link2,link2_to_link3,-0.04820218545219479,-0.17155163722756317,-1.3236874219002601,-0.939471924467179,-4.594667537795336,-12.371029450482503,1.3956659305829513,2.797787148948295,0.07519731088759407
11780000000,11539,11780000000,,base_to_link1,link1_to_link2,link2_to_link3,-0.04915780268632819,-0.1761832492054447,-1.3359730092913011,-0.9556173147125784,-4.63161951119024,-12.285982334758414,1.4214937789891269,2.8958625239544817,0.11355898860796998
11781000000,11540,11781000000,,base_to_link1,link1_to_link2,link2_to_link3,-0.050129258648961006,-0.18084986092284527,-1.3481706191949172,-0.9714560441293676,-4.666619424260945,-12.198000879838048,1.4471953415758603,2.9932505591109866,0.1523235496687967
11782000000,11541,11782000000,,base_to_link1,link1_to_link2,link2_to_link3,-0.05111622746085853,-0.18554946176363263,-1.3602773001314326,-0.9869688945633841,-4.699608715737655,-12.107067627699672,1.4727486306189776,3.089877797931231,0.19147476881538417
11783000000,11542,11783000000,,base_to_link1,link1_to_link2,link2_to_link3,-0.05211836374701928,-0.19027998366561416,-1.3722900827875701,-1.002136370239639,-4.730529938805581,-12.013164747472214,1.4981311691719694,3.1856711891744984,0.2309958497044553
11784000000,11543,11784000000,,base_to_link1,link1_to_link2,link2_to_link3,-0.05313530238181752,-0.19503930236064893,-1.3842059796684207,-1.0169387205221445,-4.759326886740348,-11.916274061044007,1.523320007709832,3.2805582215944833,0.2708694448073148
11785000000,11544,11785000000,,base_to_link1,link1_to_link2,link2_to_link3,-0.054166658260327516,-0.19982523874210134,-1.3960219847769881,-1.0313559660918163,-4.785944720288197,-11.816377070654392,1.5482917443403197,3.3744670619758557,0.3110776775384494
11786000000,11545,11786000000,,base_to_link1,link1_to_link2,link2_to_link3,-0.05521202609929521,-0.2046355603611163,-1.4077350733233178,-1.0453679286048478,-4.810330096485233,-11.713454988478485,1.5730225486950915,3.4673266961888753,0.35160216664236543
11787000000,11546,11787000000,,base_to_link1,link1_to_link2,link2_to_link3,-0.056270980271290405,-0.2094679830528401,-1.4193422014651453,-1.0589542638704295,-4.832431298591722,-11.607488768192317,1.5974881895978,3.559067072971559,0.392424052869897
11788000000,11547,11788000000,,base_to_link1,link1_to_link2,link2_to_link3,-0.05734307467558697,-0.21432017269332793,-1.4308403060820822,-1.0720944985703105,-4.852198366801289,-11.498459138493324,1.6216640665833335,3.6496192501260314,0.4335240279495851
11789000000,11548,11789000000,,base_to_link1,link1_to_link2,link2_to_link3,-0.05842784264929701,-0.21918974708759098,-1.442226304585203,-1.0847680705157838,-4.8695832293681125,-11.38634663853553,1.6455252453261802,3.7389155427968754,0.4748823658501413
11790000000,11549,11790000000,,base_to_link1,link1_to_link2,link2_to_link3,-0.05952479692226387,-0.22407427798878832,-1.4534970947639358,-1.096954372421939,-4.884539833783824,-11.271131655218612,1.669046497008754,3.8268896734788376,0.5164789563116017
11791000000,11550,11791000000,,base_to_link1,link1_to_link2,link2_to_link3,-0.060633429619216805,-0.22897129324829013,-1.4646495546719915,-1.1086327991465108,-4.897024277615817,-11.152794462250274,1.6922023416445777,3.9134769233855335,0.5582933406030683
11792000000,11551,11792000000,,base_to_link1,link1_to_link2,link2_to_link3,-0.06175321231254305,-0.23387827909580583,-1.4756805425540485,-1.119782798321624,-4.906994938609896,-11.031315260883769,1.7149670953386789,3.9986142847884665,0.6003047494445077
11793000000,11552,11793000000,,base_to_link1,link1_to_link2,link2_to_link3,-0.06288359612898109,-0.23879268254847918,-1.4865868968147247,-1.130383924274557,-4.914412603647945,-10.906674222211354,1.7373149214470545,4.0822406139209875,0.6424921430112391
11794000000,11553,11794000000,,base_to_link1,link1_to_link2,link2_to_link3,-0.06402401191339724,-0.24371191394736424,-1.49736543603127,-1.1404158951051329,-4.91924059613893,-10.77885153087176,1.759219885564368,4.1642967840268,0.6848342529167901
11795000000,11554,11795000000,,base_to_link1,link1_to_link2,link2_to_link3,-0.06517387045262968,-0.24863334961929606,-1.5080129590112339,-1.1498586527571992,-4.921444901412375,-10.647827430011631,1.7806560142391052,4.244725838115872,0.7273096260477008
11796000000,11555,11796000000,,base_to_link1,link1_to_link2,link2_to_link3,-0.06633256276219957,-0.2535543346617102,-1.518526244896174,-1.1586924258853313,-4.920994289677356,-10.513582267318224,1.801597357283496,4.323473140976475,0.7698966701012395
11797000000,11556,11797000000,,base_to_link1,link1_to_link2,link2_to_link3,-0.06749946043844357,-0.2584721858475225,-1.5289020533123168,-1.1668977952826178,-4.917860436098434,-10.37609654192617,1.822018053507327,4.400486529982439,0.8125737006553599
11798000000,11557,11798000000,,base_to_link1,link1_to_link2,link2_to_link3,-0.06867391607838069,-0.2633841946467781,-1.5391371245687662,-1.1744557616013451,-4.91201803753876,-10.23535095197375,1.8418923996670535,4.475716464217947,0.8553189895822655
11799000000,11558,11799000000,,base_to_link1,link1_to_link2,link2_to_link3,-0.0698552637692691,-0.2682876303612156,-1.549228179903757,-1.1813478150552812,-4.903444925513098,-10.09132644258109,1.861194922385152,4.549116171436993,0.8981108145864471
11800000000,11559,11800000000,,base_to_link1,link1_to_link2,link2_to_link3,-0.07104281964950676,-0.2731797433675487,-1.5591719217790683,-1.1875560067614102,-4.892122174890116,-9.944004253996066,1.8799004527479721,4.62064179236213,0.9409275096454603
11801000000,11560,11801000000,,base_to_link1,link1_to_link2,link2_to_link3,-0.07223588254213364,-0.2780577684647296,-1.5689650342225434,-1.1930630213363205,-4.878034207882872,-9.793365969651553,1.8979842032564778,4.690252521819624,0.983747516100328
11802000000,11561,11802000000,,base_to_link1,link1_to_link2,link2_to_link3,-0.07343373466176484,-0.28291892832003374,-1.5786041832183564,-1.1978522503342939,-4.861168892863366,-9.639393563862514,1.915421846757657,4.7579107462024295,1.0265494341373715
11803000000,11562,11803000000,,base_to_link1,link1_to_link2,link2_to_link3,-0.07463564239536336,-0.2877604370083029,-1.588086017144386,-1.2019078660795461,-4.841517637542522,-9.482069448892485,1.9321895969519423,4.8235821767457665,1.0693120743886873
11804000000,11563,11804000000,,base_to_link1,link1_to_link2,link2_to_link3,-0.07584085715675482,-0.2925795036382999,-1.597407167255815,-1.2052148954237496,-4.819075476055675,-9.321376521107993,1.9482642900331797,4.88723597809938,1.112014509371683
11805000000,11564,11805000000,,base_to_link1,link1_to_link2,link2_to_link3,-0.07704861631436,-0.29737333605957783,-1.606564248213747,-1.2077592929387677,-4.793841149502889,-9.1572982059473,1.9636234669912978,4.948844891676605,1.154636124479807
11806000000,11565,11806000000,,base_to_link1,link1_to_link2,link2_to_link3,-0.0782581441910315,-0.30213914464292824,-1.6155538586574032,-1.2095280130426476,-4.765817179501565,-8.989818501427663,1.9782454560823677,5.008385353263534,1.1971566682377688
11807000000,11566,11807000000,,base_to_link1,link1_to_link2,link2_to_link3,-0.07946865313445084,-0.30687414612693953,-1.6243725818181574,-1.2105090805527914,-4.735009934322076,-8.81892201992013,1.9921094549529625,5.065837604375863,1.2395563015300866
11808000000,11567,11808000000,,base_to_link1,link1_to_link2,link2_to_link3,-0.08067934465599702,-0.3115755675228842,-1.6330169861734412,-1.2106916591602621,-4.701429687188298,-8.644594027932055,2.0051956118972996,5.121185796860236,1.2818156455166791
11809000000,11568,11809000000,,base_to_link1,link1_to_link2,link2_to_link3,-0.08188941063552857,-0.31624065006967417,-1.6414836261382462,-1.2100661173324927,-4.665090666353876,-8.466820483641468,2.0174851057202323,5.17441809024374,1.323915827954588
11810000000,11569,11810000000,,base_to_link1,link1_to_link2,link2_to_link3,-0.08309803458900245,-0.32086665323029084,-1.6497690427917604,-1.2086240911644082,-4.6260110965784005,-8.285588071940786,2.028960223687778,5.225526741359489,1.3658385276467424
11811000000,11570,11811000000,,base_to_link1,link1_to_link2,link2_to_link3,-0.0843043929954499,-0.3254508587207754,-1.6578697646364162,-1.2063585437228046,-4.584213231664938,-8.100884236757437,2.0396044370544324,5.274508185787379,1.4075660167528632
11812000000,11571,11812000000,,base_to_link1,link1_to_link2,link2_to_link3,-0.08550765667934446,-0.3299905745624878,-1.6657823083863992,-1.2032638204568837,-4.539723377747081,-7.912697210434089,2.0494024736773033,5.321363110681275,1.4490812006997853
11813000000,11572,11813000000,,base_to_link1,link1_to_link2,link2_to_link3,-0.08670699224407574,-0.3344831391481664,-1.6735031797824913,-1.1993357002789753,-4.492571907053675,-7.72101603996503,2.058340387250328,5.3660965185787415,1.490367655447061
11814000000,11573,11814000000,,base_to_link1,link1_to_link2,link2_to_link3,-0.08790156355179679,-0.3389259253119734,-1.6810288744299076,-1.194571441957732,-4.442793261917892,-7.525830609898436,2.0664056227197327,5.408717781826509,1.5314096618722877
11815000000,11574,11815000000,,base_to_link1,link1_to_link2,link2_to_link3,-0.08909053324466765,-0.34331634439363246,-1.688355878655635,-1.188969825504709,-4.390425948842229,-7.327131661735476,2.0735870774757,5.449240687289755,1.572192237050845
11816000000,11575,11816000000,,base_to_link1,link1_to_link2,link2_to_link3,-0.0902730643021945,-0.34765185028655043,-1.6954806703816008,-1.1825311882759781,-4.335512522478697,-7.124910809674516,2.0798751579513857,5.487683471058586,1.6127011622287961
11817000000,11576,11817000000,,base_to_link1,link1_to_link2,link2_to_link3,-0.09144960805578872,-0.3519282327777917,-1.702410486765178,-1.1765438873613292,-4.276389015923485,-6.929927579209983,2.085261831297923,5.496081505505813,1.5815571851311772
11818000000,11577,11818000000,,base_to_link1,link1_to_link2,link2_to_link3,-0.09262145054656212,-0.35614065721179333,-1.7091587091751794,-1.1718426279202419,-4.212430826077455,-6.748326345396816,2.091039967919216,5.480137044703364,1.5065095065505991
11819000000,11578,11819000000,,base_to_link1,link1_to_link2,link2_to_link3,-0.09378945523786353,-0.3602851938882745,-1.7157363787628501,-1.1680048291991347,-4.14454283309449,-6.57776681191714,2.098057133385863,5.45871740245784,1.4431380532192657
11820000000,11579,11820000000,,base_to_link1,link1_to_link2,link2_to_link3,-0.09495404002925145,-0.3643586528848113,-1.7221526768428799,-1.1645849296755575,-4.073464899996517,-6.416389063904039,2.1058993815777702,5.4326881119213,1.3892036939526058
11821000000,11580,11821000000,,base_to_link1,link1_to_link2,link2_to_link3,-0.09611532899017927,-0.3683584469165,-1.7284152518734128,-1.161289099248257,-3.9997996699242178,-6.262660189810776,2.114125329968072,5.402757086892433,1.3429290806514604
11822000000,11581,11822000000,,base_to_link1,link1_to_link2,link2_to_link3,-0.09727321535640154,-0.37228248458220836,-1.7345305160479274,-1.1578865041670763,-3.9240430313236856,-6.115343880030766,2.1224423891500495,5.369501047663872,1.3028485399715235
11823000000,11582,11823000000,,base_to_link1,link1_to_link2,link2_to_link3,-0.09842741435231783,-0.37612908396137446,-1.7405038769023005,-1.1541991331249892,-3.8466044701993267,-5.9734354404039856,2.130618657731092,5.333394918671381,1.2677806378618603
11824000000,11583,11824000000,,base_to_link1,link1_to_link2,link2_to_link3,-0.09957750657511166,-0.37989690281731203,-1.7463399264120216,-1.1500923589212133,-3.7678236736372277,-5.836119280538191,2.1384732766481678,5.294831316714744,1.2367655091420655
11825000000,11584,11825000000,,base_to_link1,link1_to_link2,link2_to_link3,-0.10072297198465119,-0.3835848825693633,-1.7520425939594286,-1.1454655442568151,-3.6879843002945445,-5.70273278234951,2.14586742467233,5.254136456514177,1.2090242367957806
11826000000,11585,11826000000,,base_to_link1,link1_to_link2,link2_to_link3,-0.10186321734002757,-0.38719220300986645,-1.7576152701900032,-1.1402454883759339,-3.607324725152445,-5.572737188067613,2.1526952641033272,5.211583360921251,1.1839242501833374
11827000000,11586,11827000000,,base_to_link1,link1_to_link2,link2_to_link3,-0.10299759814497289,-0.3907182456535052,-1.7630609075786303,-1.1343809359463473,-3.5260466720093393,-5.44569430934229,2.1588776617762093,5.1674021528415075,1.1609514516102033
11828000000,11587,11828000000,,base_to_link1,link1_to_link2,link2_to_link3,-0.10412543619827286,-0.3941625639942776,-1.7683821021359734,-1.1278381820331889,-3.4443221212468735,-5.321247666692301,2.164356917396076,5.121788321221196,1.139687931095878
11829000000,11588,11829000000,,base_to_link1,link1_to_link2,link2_to_link3,-0.10524603361976137,-0.3975248592944274,-1.7735811598771232,-1.1205975477152328,-3.3622988418683377,-5.199107251267003,2.1690925440159172,5.0749093313829245,1.11979392288662
11830000000,11589,11830000000,,base_to_link1,link1_to_link2,link2_to_link3,-0.10635868403366278,-0.4008049608112527,-1.7786601509539484,-1.1126505374003974,-3.28010482943322,-5.079037188120994,2.173057883912846,5.02690991495342,1.1009932319036775
11831000000,11590,11831000000,,base_to_link1,link1_to_link2,link2_to_link3,-0.10746268146219062,-0.4040028095861379,-1.7836209537847072,-1.1039975490949636,-3.197851868344991,-4.960845733180589,2.176237377737025,4.977916310066149,1.0830614383411987
11832000000,11591,11832000000,,base_to_link1,link1_to_link2,link2_to_link3,-0.10855732737195734,-0.40711844509565953,-1.7884652910630763,-1.0946460272252758,-3.1156383939550665,-4.844377152401495,2.1786243637168696,4.9280396615394135,1.0658163359289388
11833000000,11592,11833000000,,base_to_link1,link1_to_link2,link2_to_link3,-0.10964193622888185,-0.41015199420396886,-1.793194759165626,-1.0846089711192073,-3.0335517938902674,-4.729505120004237,2.1802193009448487,4.877378749491393,1.0491101711803612
11834000000,11593,11834000000,,base_to_link1,link1_to_link2,link2_to_link3,-0.11071583984774325,-0.4131036619669439,-1.7978108521857568,-1.073903729649824,-2.9516702598196405,-4.61612734480406,2.1810283334080256,4.826022180191414,1.0328233357025072
11835000000,11594,11835000000,,base_to_link1,link1_to_link2,link2_to_link3,-0.11177839076675067,-0.4159737239273591,-1.8023149815882888,-1.0625510262764868,-2.870064278521241,-4.504161190725603,2.181062128127256,4.774050145868289,1.016859232865619
11836000000,11595,11836000000,,base_to_link1,link1_to_link2,link2_to_link3,-0.11282896483290994,-0.4187625196115059,-1.806708492290543,-1.050574169811576,-2.7887978333247823,-4.393540103216591,2.1803349339439935,4.721535838728823,1.0011400948633966
11837000000,11596,11837000000,,base_to_link1,link1_to_link2,link2_to_link3,-0.11386696314801181,-0.4214704469945234,-1.810992675824039,-1.0379984150593646,-2.707929372855981,-4.284210689776737,2.178863818140675,4.66854658736663,0.9856035699376262
11838000000,11597,11838000000,,base_to_link1,link1_to_link2,link2_to_link3,-0.11489181349632904,-0.4240979577474393,-1.8151687811083654,-1.0248504445201778,-2.627512592733949,-4.176130332083638,2.1766680465394828,4.615144770159812,0.9701999345242203
11839000000,11598,11839000000,,base_to_link1,link1_to_link2,link2_to_link3,-0.11590297135191907,-0.42664555311547137,-1.819238023269783,-1.01115794800051,-2.547597066867026,-4.069265230677637,2.1737685794834682,4.561388549438753,0.9548898131174637
11840000000,11599,11840000000,,base_to_link1,link1_to_link2,link2_to_link3,-0.11689992054481291,-0.429113780306694,-1.8232015908569412,-0.9969492814877912,-2.4682287578001025,-3.96358880204761,2.1701876615197007,4.507332461564962,0.9396423111413053
11841000000,11600,11841000000,,base_to_link1,link1_to_link2,link2_to_link3,-0.11788217365031262,-0.4315032292937788,-1.8270606517411654,-0.9822531902718811,-2.389450429801092,-3.8590803631644452,2.1659484869359202,4.453027891165073,0.924433484191975
11842000000,11601,11842000000,,base_to_link1,link1_to_link2,link2_to_link3,-0.11884927215356189,-0.4338145299506122,-1.8308163579360226,-0.967098584206526,-2.311301983762315,-3.755724050757845,2.161074926775007,4.3985234522347,0.9092450815744715
11843000000,11602,11843000000,,base_to_link1,link1_to_link2,link2_to_link3,-0.11980078643173275,-0.43604834946102766,-1.8344698495281264,-0.9515143553385852,-2.233820729280456,-3.6535079325276194,2.1555913057421447,4.343865294406028,0.8940635137751496
11844000000,11603,11844000000,,base_to_link1,link1_to_link2,link2_to_link3,-0.12073631558832876,-0.4382053899491529,-1.8380222578762826,-0.935529230012482,-2.157041606310246,-3.5524232754739007,2.1495222196559123,4.2890973491150675,0.8788790029808253
11845000000,11604,11845000000,,base_to_link1,link1_to_link2,link2_to_link3,-0.12165548716768537,-0.4402863862909916,-1.8414747082077252,-0.9191716490715321,-2.080997366382155,-3.452463943000146,2.1428923858957694,4.234261527558822,0.8636848834005422
11846000000,11605,11846000000,,base_to_link1,link1_to_link2,link2_to_link3,-0.12255795677260561,-0.4422921040748511,-1.8448283217171593,-0.9024696709922658,-2.005718721454869,-3.353625897685537,2.1357265207483858,4.179397880028786,0.8484770243310908
11847000000,11606,11847000000,,base_to_link1,link1_to_link2,link2_to_link3,-0.12344340760387507,-0.4442233376847584,-1.8480842172553764,-0.8854508937733592,-1.931234466910005,-3.255906790875285,2.128049238718322,4.124544724367718,0.8332533539195581
11848000000,11607,11848000000,,base_to_link1,link1_to_link2,link2_to_link3,-0.12431154993705196,-0.446080908486274,-1.8512435126788844,-0.8681423921916065,-1.8575715839465996,-3.1593056236861368,2.1198849698121096,4.069738749798502,0.8180134656399369
11849000000,11608,11849000000,,base_to_link1,link1_to_link2,link2_to_link3,-0.1251621205491107,-0.4478656630983453,-1.8543073259193683,-0.8505706676748783,-1.7847553256177322,-3.0638224668350444,2.1112578915621256,4.015015101176763,0.8027582927950321
11850000000,11609,11850000000,,base_to_link1,link1_to_link2,link2_to_link3,-0.12599488210535714,-0.44957847173824295,-1.8572767758214859,-0.832761608561599,-1.7128092899291505,-2.9694582289799945,2.102191873165985,3.9604074477460554,0.7874898390394707
11851000000,11610,11851000000,,base_to_link1,link1_to_link2,link2_to_link3,-0.12680962251517602,-0.4512202266294354,-1.8601529827890815,-0.8147404589321354,-1.641755482758751,-2.8762144651216177,2.0927104296151704,3.905948039685823,0.7722109550987994
11852000000,11611,11852000000,,base_to_link1,link1_to_link2,link2_to_link3,-0.1276061542636855,-0.45279184046440424,-1.8629370692729061,-0.7965317945341835,-1.5716143728168515,-2.78409321813252,2.082836684083895,3.8516677551096445,0.7569251536329542
11853000000,11612,11853000000,,base_to_link1,link1_to_link2,link2_to_link3,-0.1283843137252374,-0.45429424491625614,-1.865630160127317,-0.7781595045980636,-1.5024049404299635,-2.693096887717744,2.072593337171038,3.7975961396536446,0.7416364556429165
11854000000,11613,11854000000,,base_to_link1,link1_to_link2,link2_to_link3,-0.12914396046361443,-0.45572838919436354,-1.86823338285868,-0.7596467785603116,-1.4341447215796237,-2.6032281221227187,2.0620026418504374,3.743761440376397,0.7263492629982777
11855000000,11614,11855000000,,base_to_link1,link1_to_link2,link2_to_link3,-0.12988497652306297,-0.45709523864044943,-1.8707478677843596,-0.741016096888882,-1.3668498483377862,-2.514489728731913,2.0510863831964556,3.6901906353541563,0.7110682526289529
11856000000,11615,11856000000,,base_to_link1,link1_to_link2,link2_to_link3,-0.13060726571360082,-0.4583957733624091,-1.8731747481180427,-0.722289225352927,-1.3005350866095378,-2.4268846003756694,2.0398658621195116,3.6369094600770944,0.695798288714041
11857000000,11616,11857000000,,base_to_link1,link1_to_link2,link2_to_link3,-0.13131075289347915,-0.4596309869039006,-1.8755151599944213,-0.7034872121937684,-1.2352138719023606,-2.340415654724781,2.0283618824889347,3.58394243153025,0.6805443498416093
11858000000,11617,11858000000,,base_to_link1,link1_to_link2,link2_to_link3,-0.13199538325129634,-0.4608018849482969,-1.8777702424442175,-0.6846303877507509,-1.1708983436894635,-2.2550857845984194,2.01659474112856,3.5313128706586756,0.6653114686502353
11859000000,11618,11859000000,,base_to_link1,link1_to_link2,link2_to_link3,-0.13266112158979393,-0.46190948405604626,-1.8799411373286148,-0.6657383661734065,-1.1075993788076812,-2.1708978173910376,2.004584220263714,3.4790429237703107,0.6501046818872971
11860000000,11619,11860000000,,base_to_link1,link1_to_link2,link2_to_link3,-0.1333079516131681,-0.4629548104347867,-1.8820289892407658,-0.6468300489105041,-1.045326624230146,-2.087854482132805,1.9923495820713455,3.427153583307458,0.6349289891799481
11861000000,11620,11861000000,,base_to_link1,link1_to_link2,link2_to_link3,-0.13393587521937445,-0.463938898741886,-1.88403494538073,-0.6279236297243457,-0.9840885294725881,-2.00595838293918,1.9799095650421847,3.375664708320629,0.6197893191107378
11862000000,11621,11862000000,,base_to_link1,link1_to_link2,link2_to_link3,-0.1345449117987707,-0.46486279091920135,-1.8859601554092666,-0.6090366010100774,-0.9238923788229789,-1.9252119778325945,1.9672823819180898,3.3245950449002226,0.6046905014167037
11863000000,11622,11863000000,,base_to_link1,link1_to_link2,link2_to_link3,-0.13513509754019015,-0.46572753506003206,-1.8878057712849259,-0.590185761245369,-0.8647443235336593,-1.8456175620682673,1.954485718997784,3.2739622467537783,0.5896372443487397
11864000000,11623,11864000000,,base_to_link1,link1_to_link2,link2_to_link3,-0.135706484745449,-0.46653418430831817,-1.8895729470882827,-0.5713872234115452,-0.8066494140686575,-1.7671772552593075,1.9415367366472702,3.2237828960676143,0.5746341163684201
11865000000,11624,11865000000,,base_to_link1,link1_to_link2,link2_to_link3,-0.13625914115312288,-0.4672837957902116,-1.8912628388364894,-0.5526564242587756,-0.7496116324679504,-1.689892991696845,1.9284520708660349,3.1740725247461694,0.5596855315155931
11866000000,11625,11866000000,,base_to_link1,link1_to_link2,link2_to_link3,-0.13679314927230113,-0.46797742957814226,-1.8928766042908478,-0.5340081343009003,-0.6936339248575775,-1.6137665133673913,1.915247835790004,3.124845636091916,0.5447957378737338
